$IIVLW,149.20,N,149.20,N,,N,,N*4D
$IIVTG,65.8,T,,M,6.1,N,11.2,K,A*14
$IIXTE,A,A,0.39,L,N,A*1E
$IIMDA,,P,,B,23.4,C,24.7,C,,,,C,,T,,M,,N,,M*07
$GPGGA,090927,3648.4119,N,02437.7414,E,1,9,0.84,9.29,M,30.46,M*41
$ECRMB,A,0.318,L,002,003,3653.412,N,02443.775,E,6.957,44.004,6.100,V*22
$ECRMC,090935,A,3648.412,N,02437.741,E,6.100,65.800,240715,3.960,E*5A
$ECAPB,A,A,0.32,L,N,V,V,46.747,T,003,44.004,T,44.004,T*37
$ECXTE,A,A,0.318,L,N*45
$SDDPT,100.72,0.00,*7F
$IIAPB,A,A,0.39,L,N,V,V,,M,,,M,,M,A*65
$IIMWV,290.36,R,14.97,N,A*08
$SDDBT,330.71,f,100.80,M,55.12,F*0A
$GPGLL,3648.4125,N,02437.7425,E,090928,A,A*40
$HCHDG,,,,4.0,E*03
$IIMDA,,P,,B,23.4,C,24.7,C,,,,C,,T,,M,,N,,M*07
$IIMTW,24.73,C*21
$GPGGA,090928,3648.4126,N,02437.7426,E,1,9,0.84,9.14,M,30.46,M*4D
$SDDPT,100.80,0.00,*72
$GPRMB,A,0.39,L,,,3653.7862,N,2443.8638,E,7.28,42.35,,V,A*7E
$ECRMB,A,0.319,L,002,003,3653.412,N,02443.775,E,6.955,44.001,6.100,V*24
$ECRMC,090936,A,3648.412,N,02437.742,E,6.100,65.800,240715,4.000,E*52
$ECAPB,A,A,0.32,L,N,V,V,46.747,T,003,44.001,T,44.001,T*37
$ECXTE,A,A,0.319,L,N*44
$GPRMC,090929,A,3648.4131,N,02437.7439,E,5.62,63.29,240715,3.96,E,A*13
$IIVHW,,T,,M,6.90,N,12.78,K*66
$IIZDA,090929,24,07,2015,,*53
$IIAPB,A,A,0.39,L,N,V,V,,M,,,M,,M,A*65
$IIMWV,291.05,R,14.95,N,A*0B
$IIVLW,149.20,N,149.20,N,,N,,N*4D
$IIVTG,63.3,T,,M,5.6,N,10.4,K,A*1A
$IIXTE,A,A,0.39,L,N,A*1E
$IIMDA,,P,,B,23.4,C,24.7,C,,,,C,,T,,M,,N,,M*07
$GPGGA,090929,3648.4133,N,02437.7444,E,1,9,0.84,9.46,M,30.46,M*4B
$SDDPT,100.87,0.00,*75
$IIAPB,A,A,0.39,L,N,V,V,,M,,,M,,M,A*65
$IIMWV,290.02,R,14.97,N,A*0F
$ECRMB,A,0.319,L,002,003,3653.412,N,02443.775,E,6.954,43.998,5.600,V*2F
$ECRMC,090937,A,3648.413,N,02437.744,E,5.600,63.300,240715,3.960,E*55
$ECAPB,A,A,0.32,L,N,V,V,46.747,T,003,43.998,T,43.998,T*37
$ECXTE,A,A,0.319,L,N*44
$SDDBT,331.20,f,100.95,M,55.20,F*0A
$GPGLL,3648.4137,N,02437.7457,E,090930,A,A*4F
$GPGSA,M,1,24,12,15,17,06,02,25,14,29,,,,1.4,0.8,1.1*3B
$GPGSV,3,1,09,24,71,158,45,12,63,350,46,15,06,189,39,17,03,045,29*7A
$GPGSV,3,2,09,06,32,066,41,02,43,114,44,25,37,298,42,14,24,301,39*7F
$GPGSV,3,3,09,29,26,227,43*4F
$HCHDG,,,,4.0,E*03
$IIMTW,24.73,C*21
$IIMDA,,P,,B,23.4,C,24.7,C,,,,C,,T,,M,,N,,M*07
$ECRMB,A,0.320,L,002,003,3653.412,N,02443.775,E,6.952,43.993,5.600,V*28
$ECRMC,090938,A,3648.414,N,02437.746,E,5.600,63.300,240715,4.000,E*57
$ECAPB,A,A,0.32,L,N,V,V,46.747,T,003,43.993,T,43.993,T*37
$ECXTE,A,A,0.320,L,N*4E
$GPGGA,090930,3648.4138,N,02437.7458,E,1,9,0.84,9.36,M,30.46,M*42
$SDDPT,100.95,0.00,*76
$GPRMB,A,0.39,L,,,3653.7862,N,2443.8638,E,7.28,42.34,,V,A*7F
$GPRMC,090931,A,3648.4144,N,02437.7472,E,5.99,61.74,240715,3.96,E,A*19
$IIVHW,,T,,M,6.88,N,12.74,K*63
$IIZDA,090931,24,07,2015,,*5A
$IIAPB,A,A,0.39,L,N,V,V,,M,,,M,,M,A*65
$IIMWV,290.46,R,15.03,N,A*03
$IIVLW,149.21,N,149.21,N,,N,,N*4D
$IIVTG,61.7,T,,M,6.0,N,11.1,K,A*1D
$IIXTE,A,A,0.39,L,N,A*1E
$IIMDA,,P,,B,23.3,C,24.7,C,,,,C,,T,,M,,N,,M*00
$GPGGA,090931,3648.4146,N,02437.7478,E,1,9,0.84,9.53,M,30.46,M*4B
$ECRMB,A,0.320,L,002,003,3653.412,N,02443.775,E,6.951,43.989,6.000,V*25
$ECRMC,090939,A,3648.414,N,02437.747,E,6.000,61.700,240715,3.960,E*5C
$ECAPB,A,A,0.32,L,N,V,V,46.747,T,003,43.989,T,43.989,T*37
$ECXTE,A,A,0.320,L,N*4E
$SDDPT,100.87,0.00,*75
$IIAPB,A,A,0.39,L,N,V,V,,M,,,M,,M,A*65
$IIMWV,290.01,R,15.10,N,A*02
$SDDBT,330.94,f,100.87,M,55.16,F*02
$GPGLL,3648.4151,N,02437.7488,E,090932,A,A*4F
$HCHDG,,,,4.0,E*03
$IIMTW,24.73,C*21
$IIMDA,,P,,B,23.3,C,24.7,C,,,,C,,T,,M,,N,,M*00
$GPGGA,090932,3648.4152,N,02437.7490,E,1,9,0.84,9.27,M,30.46,M*48
$SDDPT,100.87,0.00,*75
$GPRMB,A,0.39,L,,,3653.7862,N,2443.8638,E,7.28,42.33,,V,A*78
$ECRMB,A,0.320,L,002,003,3653.412,N,02443.775,E,6.950,43.986,6.000,V*2B
$ECRMC,090940,A,3648.415,N,02437.749,E,6.000,61.700,240715,4.000,E*55
$ECAPB,A,A,0.32,L,N,V,V,46.747,T,003,43.986,T,43.986,T*37
$ECXTE,A,A,0.320,L,N*4E
$GPRMC,090933,A,3648.4155,N,02437.7505,E,5.75,70.50,240715,3.96,E,A*1E
$IIVHW,,T,,M,7.11,N,13.18,K*69
$IIZDA,090933,24,07,2015,,*58
$IIAPB,A,A,0.39,L,N,V,V,,M,,,M,,M,A*65
$IIMWV,290.68,R,15.16,N,A*0B
$IIVLW,149.21,N,149.21,N,,N,,N*4D
$IIVTG,70.5,T,,M,5.8,N,10.7,K,A*13
$IIXTE,A,A,0.39,L,N,A*1E
$IIMDA,,P,,B,23.3,C,24.7,C,,,,C,,T,,M,,N,,M*00
$GPGGA,090933,3648.4157,N,02437.7511,E,1,9,0.84,9.61,M,30.46,M*46
$SDDPT,101.02,0.00,*79
$IIAPB,A,A,0.39,L,N,V,V,,M,,,M,,M,A*65
$IIMWV,290.71,R,15.24,N,A*02
$ECRMB,A,0.321,L,002,003,3653.412,N,02443.775,E,6.948,43.980,5.800,V*2E
$ECRMC,090941,A,3648.415,N,02437.751,E,5.800,70.500,240715,3.960,E*5C
$ECAPB,A,A,0.32,L,N,V,V,46.747,T,003,43.980,T,43.980,T*37
$ECXTE,A,A,0.321,L,N*4F
$SDDBT,331.92,f,101.17,M,55.32,F*0B
$GPGLL,3648.4164,N,02437.7526,E,090934,A,A*4A
$GPGSA,M,1,24,12,15,17,06,02,25,14,29,,,,1.4,0.8,1.1*3B
$GPGSV,3,1,09,24,71,158,45,12,63,350,44,15,06,189,40,17,03,045,27*78
$GPGSV,3,2,09,06,32,066,40,02,43,114,44,25,37,298,42,14,24,301,40*70
$GPGSV,3,3,09,29,26,227,43*4F
$HCHDG,,,,4.0,E*03
$IIMDA,,P,,B,23.3,C,24.7,C,,,,C,,T,,M,,N,,M*00
$IIMTW,24.73,C*21
$ECRMB,A,0.321,L,002,003,3653.412,N,02443.775,E,6.947,43.975,5.800,V*2B
$ECRMC,090942,A,3648.416,N,02437.753,E,5.800,70.500,240715,4.000,E*56
$ECAPB,A,A,0.32,L,N,V,V,46.747,T,003,43.975,T,43.975,T*37
$ECXTE,A,A,0.321,L,N*4F
$GPGGA,090934,3648.4164,N,02437.7526,E,1,9,0.84,9.56,M,30.46,M*41
$SDDPT,101.17,0.00,*7D
$GPRMB,A,0.39,L,,,3653.7862,N,2443.8638,E,7.28,42.32,,V,A*79
$GPRMC,090935,A,3648.4169,N,02437.7539,E,5.81,65.72,240715,3.96,E,A*17
$IIVHW,,T,,M,6.94,N,12.85,K*60
$IIZDA,090935,24,07,2015,,*5E
$IIAPB,A,A,0.39,L,N,V,V,,M,,,M,,M,A*65
$IIMWV,290.87,R,15.38,N,A*06
$IIVLW,149.21,N,149.21,N,,N,,N*4D
$IIVTG,65.7,T,,M,5.8,N,10.8,K,A*1A
$IIXTE,A,A,0.39,L,N,A*1E
$IIMDA,,P,,B,23.2,C,24.7,C,,,,C,,T,,M,,N,,M*01
$GPGGA,090935,3648.4172,N,02437.7544,E,1,9,0.84,9.33,M,30.46,M*40
$SDDPT,101.17,0.00,*7D
$IIAPB,A,A,0.39,L,N,V,V,,M,,,M,,M,A*65
$ECRMB,A,0.322,L,002,003,3653.412,N,02443.775,E,6.946,43.972,5.800,V*2E
$ECRMC,090943,A,3648.417,N,02437.754,E,5.800,65.700,240715,3.960,E*5F
$ECAPB,A,A,0.32,L,N,V,V,46.747,T,003,43.972,T,43.972,T*37
$ECXTE,A,A,0.322,L,N*4C
$IIMWV,291.81,R,15.55,N,A*0A
$SDDBT,331.92,f,101.17,M,55.32,F*0B
$GPGLL,3648.4180,N,02437.7560,E,090936,A,A*40
$HCHDG,,,,4.0,E*03
$IIMDA,,P,,B,23.2,C,24.7,C,,,,C,,T,,M,,N,,M*01
$IIMTW,24.73,C*21
$GPGGA,090936,3648.4180,N,02437.7560,E,1,9,0.84,9.50,M,30.46,M*4D
$SDDPT,101.17,0.00,*7D
$GPRMB,A,0.39,L,,,3653.7862,N,2443.8638,E,7.27,42.31,,V,A*75
$GPRMC,090937,A,3648.4185,N,02437.7572,E,5.25,62.21,240715,3.96,E,A*17
$IIVHW,,T,,M,6.92,N,12.82,K*61
$IIZDA,090937,24,07,2015,,*5C
$ECRMB,A,0.322,L,002,003,3653.412,N,02443.775,E,6.943,43.965,5.250,V*22
$ECRMC,090944,A,3648.419,N,02437.757,E,5.250,62.210,240715,3.960,E*59
$ECAPB,A,A,0.32,L,N,V,V,46.747,T,003,43.965,T,43.965,T*37
$ECXTE,A,A,0.322,L,N*4C
$IIAPB,A,A,0.39,L,N,V,V,,M,,,M,,M,A*65
$IIMWV,292.85,R,15.71,N,A*0B
$IIVLW,149.22,N,149.22,N,,N,,N*4D
$IIVTG,62.2,T,,M,5.3,N,9.7,K,A*24
$IIXTE,A,A,0.39,L,N,A*1E
$IIMDA,,P,,B,23.4,C,24.7,C,,,,C,,T,,M,,N,,M*07
$GPGGA,090937,3648.4188,N,02437.7576,E,1,9,0.84,9.38,M,30.46,M*4D
$SDDPT,101.25,0.00,*7C
$IIAPB,A,A,0.39,L,N,V,V,,M,,,M,,M,A*65
$IIMWV,294.17,R,15.88,N,A*00
$SDDBT,332.68,f,101.40,M,55.45,F*0F
$ECRMB,A,0.322,L,002,003,3653.412,N,02443.775,E,6.943,43.965,5.300,V*26
$ECRMC,090945,A,3648.419,N,02437.757,E,5.300,62.200,240715,3.960,E*5D
$ECAPB,A,A,0.32,L,N,V,V,46.747,T,003,43.965,T,43.965,T*37
$ECXTE,A,A,0.322,L,N*4C
$GPGLL,3648.4195,N,02437.7591,E,090938,A,A*44
$GPGSA,M,1,24,12,15,17,06,02,25,14,29,,,,1.4,0.8,1.1*3B
$GPGSV,3,1,09,24,71,158,45,12,63,350,44,15,06,189,41,17,03,045,30*7F
$GPGSV,3,2,09,06,32,066,42,02,43,114,43,25,37,298,42,14,24,301,39*7B
$GPGSV,3,3,09,29,26,227,42*4E
$HCHDG,,,,4.0,E*03
$IIMDA,,P,,B,23.4,C,24.7,C,,,,C,,T,,M,,N,,M*07
$IIMTW,24.73,C*21
$GPGGA,090938,3648.4197,N,02437.7592,E,1,9,0.84,9.38,M,30.46,M*46
$SDDPT,101.40,0.00,*7F
$GPRMB,A,0.39,L,,,3653.7862,N,2443.8638,E,7.27,42.31,,V,A*75
$ECRMB,A,0.323,L,002,003,3653.412,N,02443.775,E,6.941,43.962,5.300,V*22
$ECRMC,090946,A,3648.420,N,02437.759,E,5.300,62.200,240715,4.000,E*52
$ECAPB,A,A,0.32,L,N,V,V,46.747,T,003,43.962,T,43.962,T*37
$ECXTE,A,A,0.323,L,N*4D
$GPRMC,090939,A,3648.4203,N,02437.7602,E,5.38,54.20,240715,3.96,E,A*18
$IIVHW,,T,,M,6.88,N,12.74,K*63
$IIZDA,090939,24,07,2015,,*52
$IIAPB,A,A,0.39,L,N,V,V,,M,,,M,,M,A*65
$IIMWV,295.42,R,16.35,N,A*04
$IIVLW,149.22,N,149.22,N,,N,,N*4D
$IIVTG,54.2,T,,M,5.4,N,10.0,K,A*19
$IIXTE,A,A,0.39,L,N,A*1E
$IIMDA,,P,,B,23.3,C,24.7,C,,,,C,,T,,M,,N,,M*00
$GPGGA,090939,3648.4205,N,02437.7606,E,1,9,0.84,9.59,M,30.46,M*46
$ECRMB,A,0.323,L,002,003,3653.412,N,02443.775,E,6.940,43.961,5.400,V*27
$ECRMC,090947,A,3648.420,N,02437.760,E,5.400,54.200,240715,3.960,E*53
$ECAPB,A,A,0.32,L,N,V,V,46.747,T,003,43.961,T,43.961,T*37
$ECXTE,A,A,0.323,L,N*4D
$SDDPT,101.47,0.00,*78
$IIAPB,A,A,0.39,L,N,V,V,,M,,,M,,M,A*65
$IIMWV,295.52,R,16.74,N,A*00
$SDDBT,332.91,f,101.47,M,55.48,F*03
$GPGLL,3648.4213,N,02437.7619,E,090940,A,A*45
$HCHDG,,,,4.0,E*03
$IIMDA,,P,,B,23.3,C,24.7,C,,,,C,,T,,M,,N,,M*00
$IIMTW,24.73,C*21
$GPGGA,090940,3648.4213,N,02437.7620,E,1,9,0.84,9.52,M,30.46,M*40
$SDDPT,101.47,0.00,*78
$GPRMB,A,0.39,L,,,3653.7862,N,2443.8638,E,7.27,42.30,,V,A*74
$GPRMC,090941,A,3648.4219,N,02437.7630,E,5.27,54.29,240715,3.96,E,A*1A
$IIVHW,,T,,M,6.75,N,12.49,K*6F
$ECRMB,A,0.323,L,002,003,3653.412,N,02443.775,E,6.937,43.957,5.270,V*23
$ECRMC,090948,A,3648.422,N,02437.763,E,5.270,54.290,240715,3.960,E*55
$ECAPB,A,A,0.32,L,N,V,V,46.747,T,003,43.957,T,43.957,T*37
$ECXTE,A,A,0.323,L,N*4D
$IIZDA,090941,24,07,2015,,*5D
$IIAPB,A,A,0.39,L,N,V,V,,M,,,M,,M,A*65
$IIMWV,295.75,R,16.70,N,A*01
$IIVLW,149.22,N,149.22,N,,N,,N*4D
$IIVTG,54.3,T,,M,5.3,N,9.8,K,A*2F
$IIXTE,A,A,0.39,L,N,A*1E
$IIMDA,,P,,B,23.2,C,24.7,C,,,,C,,T,,M,,N,,M*01
$GPGGA,090941,3648.4221,N,02437.7634,E,1,9,0.84,9.64,M,30.46,M*40
$SDDPT,101.47,0.00,*78
$IIMWV,294.78,R,16.66,N,A*0A
$IIAPB,A,A,0.39,L,N,V,V,,M,,,M,,M,A*65
$ECRMB,A,0.323,L,002,003,3653.412,N,02443.775,E,6.937,43.957,5.300,V*25
$ECRMC,090949,A,3648.422,N,02437.763,E,5.300,54.300,240715,3.960,E*5A
$ECAPB,A,A,0.32,L,N,V,V,46.747,T,003,43.957,T,43.957,T*37
$ECXTE,A,A,0.323,L,N*4D
$SDDBT,332.91,f,101.47,M,55.48,F*03
$GPGLL,3648.4228,N,02437.7648,E,090942,A,A*4B
$GPGSA,M,1,24,12,15,17,06,02,25,14,29,,,,1.4,0.8,1.1*3B
$GPGSV,3,1,09,24,71,158,44,12,63,350,45,15,06,189,38,17,03,045,30*71
$GPGSV,3,2,09,06,32,066,42,02,43,114,44,25,37,298,42,14,24,301,40*72
$GPGSV,3,3,09,29,26,227,43*4F
$HCHDG,,,,4.0,E*03
$IIMDA,,P,,B,23.2,C,24.7,C,,,,C,,T,,M,,N,,M*01
$IIMTW,24.73,C*21
$GPGGA,090942,3648.4229,N,02437.7651,E,1,9,0.84,9.50,M,30.46,M*4F
$SDDPT,101.47,0.00,*78
$GPRMB,A,0.39,L,,,3653.7862,N,2443.8638,E,7.26,42.30,,V,A*75
$ECRMB,A,0.324,L,002,003,3653.412,N,02443.775,E,6.935,43.954,5.300,V*23
$ECRMC,090950,A,3648.423,N,02437.765,E,5.300,54.300,240715,4.000,E*5D
$ECAPB,A,A,0.32,L,N,V,V,46.747,T,003,43.954,T,43.954,T*37
$ECXTE,A,A,0.324,L,N*4A
$GPRMC,090943,A,3648.4235,N,02437.7663,E,5.87,59.50,240715,3.96,E,A*19
$IIVHW,,T,,M,6.82,N,12.64,K*68
$IIZDA,090943,24,07,2015,,*5F
$IIMWV,295.01,R,16.60,N,A*03
$IIVLW,149.23,N,149.23,N,,N,,N*4D
$IIAPB,A,A,0.39,L,N,V,V,,M,,,M,,M,A*65
$IIVTG,59.5,T,,M,5.9,N,10.9,K,A*17
$IIXTE,A,A,0.39,L,N,A*1E
$IIMDA,,P,,B,23.2,C,24.7,C,,,,C,,T,,M,,N,,M*01
$ECRMB,A,0.324,L,002,003,3653.412,N,02443.775,E,6.934,43.951,5.900,V*2D
$ECRMC,090951,A,3648.423,N,02437.766,E,5.900,59.500,240715,3.960,E*56
$ECAPB,A,A,0.32,L,N,V,V,46.747,T,003,43.951,T,43.951,T*37
$ECXTE,A,A,0.324,L,N*4A
$GPGGA,090943,3648.4237,N,02437.7667,E,1,9,0.84,9.42,M,30.46,M*47
$SDDPT,101.47,0.00,*78
$IIMWV,294.75,R,16.54,N,A*06
$IIAPB,A,A,0.40,L,N,V,V,,M,,,M,,M,A*6B
$SDDBT,333.17,f,101.55,M,55.53,F*05
$GPGLL,3648.4243,N,02437.7680,E,090944,A,A*44
$HCHDG,,,,4.0,E*03
$IIMDA,,P,,B,23.2,C,24.7,C,,,,C,,T,,M,,N,,M*01
$IIMTW,24.73,C*21
$GPGGA,090944,3648.4244,N,02437.7683,E,1,9,0.84,9.30,M,30.46,M*4B
$SDDPT,101.55,0.00,*7B
$GPRMB,A,0.40,L,,,3653.7862,N,2443.8638,E,7.26,42.29,,V,A*73
$GPRMC,090945,A,3648.4250,N,02437.7695,E,5.62,61.46,240715,3.96,E,A*12
$IIVHW,,T,,M,7.04,N,13.03,K*67
$IIZDA,090945,24,07,2015,,*59
$IIMWV,293.95,R,16.50,N,A*0B
$ECRMB,A,0.325,L,002,003,3653.412,N,02443.775,E,6.931,43.944,5.620,V*20
$ECRMC,090952,A,3648.425,N,02437.769,E,5.620,61.460,240715,3.960,E*5D
$ECAPB,A,A,0.32,L,N,V,V,46.747,T,003,43.944,T,43.944,T*37
$ECXTE,A,A,0.325,L,N*4B
$IIVLW,149.23,N,149.23,N,,N,,N*4D
$IIAPB,A,A,0.40,L,N,V,V,,M,,,M,,M,A*6B
$IIVTG,61.5,T,,M,5.6,N,10.4,K,A*1E
$IIXTE,A,A,0.40,L,N,A*10
$IIMDA,,P,,B,23.2,C,24.7,C,,,,C,,T,,M,,N,,M*01
$GPGGA,090945,3648.4252,N,02437.7700,E,1,9,0.84,9.16,M,30.46,M*43
$SDDPT,101.70,0.00,*7C
$IIMWV,294.23,R,16.43,N,A*03
$IIAPB,A,A,0.40,L,N,V,V,,M,,,M,,M,A*6B
$ECRMB,A,0.325,L,002,003,3653.412,N,02443.775,E,6.931,43.944,5.600,V*22
$ECRMC,090953,A,3648.425,N,02437.769,E,5.600,61.500,240715,3.960,E*59
$ECAPB,A,A,0.32,L,N,V,V,46.747,T,003,43.944,T,43.944,T*37
$ECXTE,A,A,0.325,L,N*4B
$SDDBT,333.40,f,101.62,M,55.57,F*07
$GPGLL,3648.4259,N,02437.7715,E,090946,A,A*40
$GPGSA,M,1,24,12,15,17,06,02,25,14,29,,,,1.4,0.8,1.1*3B
$GPGSV,3,1,09,24,71,158,44,12,63,350,45,15,06,189,40,17,03,045,29*76
$GPGSV,3,2,09,06,32,066,42,02,43,114,45,25,37,298,42,14,24,301,39*7D
$GPGSV,3,3,09,29,26,227,44*48
$HCHDG,,,,4.0,E*03
$IIMDA,,P,,B,23.2,C,24.7,C,,,,C,,T,,M,,N,,M*01
$IIMTW,24.73,C*21
$GPGGA,090946,3648.4260,N,02437.7717,E,1,9,0.84,9.19,M,30.46,M*48
$SDDPT,101.62,0.00,*7F
$GPRMB,A,0.40,L,,,3653.7862,N,2443.8638,E,7.26,42.28,,V,A*72
$ECRMB,A,0.325,L,002,003,3653.412,N,02443.775,E,6.929,43.940,5.600,V*2F
$ECRMC,090954,A,3648.426,N,02437.771,E,5.600,61.500,240715,4.000,E*5C
$ECAPB,A,A,0.32,L,N,V,V,46.747,T,003,43.940,T,43.940,T*37
$ECXTE,A,A,0.325,L,N*4B
$GPRMC,090947,A,3648.4265,N,02437.7729,E,5.52,62.11,240715,3.96,E,A*12
$IIVHW,,T,,M,7.04,N,13.03,K*67
$IIZDA,090947,24,07,2015,,*5B
$IIMWV,294.15,R,16.37,N,A*05
$IIVLW,149.24,N,149.24,N,,N,,N*4D
$IIAPB,A,A,0.40,L,N,V,V,,M,,,M,,M,A*6B
$IIVTG,62.1,T,,M,5.5,N,10.2,K,A*1C
$IIXTE,A,A,0.40,L,N,A*10
$IIMDA,,P,,B,23.2,C,24.7,C,,,,C,,T,,M,,N,,M*01
$GPGGA,090947,3648.4268,N,02437.7733,E,1,9,0.84,9.25,M,30.46,M*48
$SDDPT,101.55,0.00,*7B
$IIMWV,294.19,R,16.29,N,A*06
$IIAPB,A,A,0.40,L,N,V,V,,M,,,M,,M,A*6B
$ECRMB,A,0.325,L,002,003,3653.412,N,02443.775,E,6.928,43.936,5.500,V*2C
$ECRMC,090955,A,3648.426,N,02437.773,E,5.500,62.100,240715,3.960,E*53
$ECAPB,A,A,0.33,L,N,V,V,46.747,T,003,43.936,T,43.936,T*36
$ECXTE,A,A,0.325,L,N*4B
$SDDBT,333.40,f,101.62,M,55.57,F*07
$GPGLL,3648.4275,N,02437.7748,E,090948,A,A*48
$HCHDG,,,,4.0,E*03
$IIMDA,,P,,B,23.2,C,24.7,C,,,,C,,T,,M,,N,,M*01
$IIMTW,24.73,C*21
$GPGGA,090948,3648.4276,N,02437.7750,E,1,9,0.84,9.30,M,30.46,M*49
$SDDPT,101.62,0.00,*7F
$GPRMB,A,0.40,L,,,3653.7862,N,2443.8638,E,7.26,42.27,,V,A*7D
$GPRMC,090949,A,3648.4281,N,02437.7763,E,5.73,63.55,240715,3.96,E,A*1A
$IIVHW,,T,,M,6.88,N,12.74,K*63
$ECRMB,A,0.326,L,002,003,3653.412,N,02443.775,E,6.925,43.929,5.730,V*2D
$ECRMC,090956,A,3648.428,N,02437.776,E,5.730,63.550,240715,3.960,E*5A
$ECAPB,A,A,0.33,L,N,V,V,46.747,T,003,43.929,T,43.929,T*36
$ECXTE,A,A,0.326,L,N*48
$IIZDA,090949,24,07,2015,,*55
$IIAPB,A,A,0.40,L,N,V,V,,M,,,M,,M,A*6B
$IIMWV,294.20,R,16.25,N,A*00
$IIVLW,149.24,N,149.24,N,,N,,N*4D
$IIVTG,63.6,T,,M,5.7,N,10.6,K,A*1C
$IIXTE,A,A,0.40,L,N,A*10
$IIMDA,,P,,B,23.2,C,24.7,C,,,,C,,T,,M,,N,,M*01
$GPGGA,090949,3648.4283,N,02437.7766,E,1,9,0.84,9.34,M,30.46,M*43
$SDDPT,101.77,0.00,*7B
$IIAPB,A,A,0.40,L,N,V,V,,M,,,M,,M,A*6B
$IIMWV,294.49,R,16.19,N,A*00
$ECRMB,A,0.326,L,002,003,3653.412,N,02443.775,E,6.925,43.929,5.700,V*2E
$ECRMC,090957,A,3648.428,N,02437.776,E,5.700,63.600,240715,3.960,E*5E
$ECAPB,A,A,0.33,L,N,V,V,46.747,T,003,43.929,T,43.929,T*36
$ECXTE,A,A,0.326,L,N*48
$SDDBT,333.89,f,101.77,M,55.65,F*07
$GPGLL,3648.4289,N,02437.7780,E,090950,A,A*46
$GPGSA,M,1,24,12,15,17,02,25,14,29,,,,,1.4,0.8,1.1*3D
$GPGSV,3,1,09,24,71,158,44,12,63,350,45,15,06,189,39,17,03,045,27*76
$GPGSV,3,2,09,06,32,066,41,02,43,114,45,25,37,298,42,14,24,301,39*7E
$GPGSV,3,3,09,29,26,227,43*4F
$HCHDG,,,,4.0,E*03
$IIMDA,,P,,B,23.2,C,24.7,C,,,,C,,T,,M,,N,,M*01
$IIMTW,24.73,C*21
$GPGGA,090950,3648.4290,N,02437.7782,E,1,9,0.84,9.60,M,30.46,M*42
$SDDPT,101.77,0.00,*7B
$GPRMB,A,0.40,L,,,3653.7862,N,2443.8638,E,7.25,42.27,,V,A*7E
$ECRMB,A,0.326,L,002,003,3653.412,N,02443.775,E,6.923,43.926,5.700,V*27
$ECRMC,090958,A,3648.429,N,02437.778,E,5.700,63.600,240715,4.000,E*56
$ECAPB,A,A,0.33,L,N,V,V,46.747,T,003,43.926,T,43.926,T*36
$ECXTE,A,A,0.326,L,N*48
$GPRMC,090951,A,3648.4295,N,02437.7795,E,5.70,63.51,240715,3.96,E,A*18
$IIVHW,,T,,M,6.82,N,12.64,K*68
$IIZDA,090951,24,07,2015,,*5C
$IIAPB,A,A,0.40,L,N,V,V,,M,,,M,,M,A*6B
$IIMWV,293.27,R,16.19,N,A*0F
$IIVLW,149.25,N,149.25,N,,N,,N*4D
$IIVTG,63.5,T,,M,5.7,N,10.6,K,A*1F
$IIXTE,A,A,0.40,L,N,A*10
$IIMDA,,P,,B,23.2,C,24.7,C,,,,C,,T,,M,,N,,M*01
$GPGGA,090951,3648.4297,N,02437.7800,E,1,9,0.84,9.23,M,30.46,M*46
$SDDPT,101.77,0.00,*7B
$IIAPB,A,A,0.40,L,N,V,V,,M,,,M,,M,A*6B
$IIMWV,294.48,R,16.17,N,A*0F
$ECRMB,A,0.327,L,002,003,3653.412,N,02443.775,E,6.922,43.922,5.700,V*23
$ECRMC,090959,A,3648.430,N,02437.780,E,5.700,63.500,240715,3.960,E*53
$ECAPB,A,A,0.33,L,N,V,V,46.747,T,003,43.922,T,43.922,T*36
$ECXTE,A,A,0.327,L,N*49
$SDDBT,333.89,f,101.77,M,55.65,F*07
$GPGLL,3648.4303,N,02437.7816,E,090952,A,A*47
$HCHDG,,,,4.0,E*03
$IIMDA,,P,,B,23.2,C,24.7,C,,,,C,,T,,M,,N,,M*01
$IIMTW,24.73,C*21
$GPGGA,090952,3648.4304,N,02437.7818,E,1,9,0.84,9.54,M,30.46,M*47
$SDDPT,101.77,0.00,*7B
$GPRMB,A,0.40,L,,,3653.7862,N,2443.8638,E,7.25,42.26,,V,A*7F
$GPRMC,090953,A,3648.4307,N,02437.7828,E,5.05,64.43,240715,3.96,E,A*1F
$IIVHW,,T,,M,6.92,N,12.82,K*61
$ECRMB,A,0.328,L,002,003,3653.412,N,02443.775,E,6.919,43.913,5.050,V*24
$ECRMC,091000,A,3648.431,N,02437.783,E,5.050,64.430,240715,3.960,E*52
$ECAPB,A,A,0.33,L,N,V,V,46.747,T,003,43.913,T,43.913,T*36
$ECXTE,A,A,0.328,L,N*46
$IIZDA,090953,24,07,2015,,*5E
$IIAPB,A,A,0.40,L,N,V,V,,M,,,M,,M,A*6B
$IIMWV,293.41,R,16.15,N,A*03
$IIVLW,149.25,N,149.25,N,,N,,N*4D
$IIVTG,64.4,T,,M,5.1,N,9.4,K,A*25
$IIXTE,A,A,0.40,L,N,A*10
$IIMDA,,P,,B,23.2,C,24.7,C,,,,C,,T,,M,,N,,M*01
$GPGGA,090953,3648.4309,N,02437.7832,E,1,9,0.84,9.08,M,30.46,M*4A
$SDDPT,101.77,0.00,*7B
$IIAPB,A,A,0.40,L,N,V,V,,M,,,M,,M,A*6B
$IIMWV,294.24,R,16.11,N,A*03
$SDDBT,333.89,f,101.77,M,55.65,F*07
$GPGLL,3648.4316,N,02437.7849,E,090954,A,A*4F
$GPGSA,M,1,24,12,15,17,06,02,25,14,29,,,,1.4,0.8,1.1*3B
$ECRMB,A,0.328,L,002,003,3653.412,N,02443.775,E,6.918,43.908,5.100,V*2B
$ECRMC,091001,A,3648.432,N,02437.785,E,5.100,64.400,240715,3.960,E*51
$ECAPB,A,A,0.33,L,N,V,V,46.747,T,003,43.908,T,43.908,T*36
$ECXTE,A,A,0.328,L,N*46
$GPGSV,3,1,09,24,71,158,44,12,63,350,45,15,06,189,41,17,03,045,28*76
$GPGSV,3,2,09,06,32,066,41,02,43,114,44,25,37,298,42,14,24,301,39*7F
$GPGSV,3,3,09,29,26,227,44*48
$HCHDG,,,,4.0,E*03
$IIMDA,,P,,B,23.2,C,24.7,C,,,,C,,T,,M,,N,,M*01
$IIMTW,24.72,C*20
$GPGGA,090954,3648.4317,N,02437.7850,E,1,9,0.84,9.32,M,30.46,M*4F
$SDDPT,101.77,0.00,*7B
$ECRMB,A,0.328,L,002,003,3653.412,N,02443.775,E,6.918,43.908,5.100,V*2B
$ECRMC,091002,A,3648.432,N,02437.785,E,5.100,64.400,240715,4.000,E*5A
$ECAPB,A,A,0.33,L,N,V,V,46.747,T,003,43.908,T,43.908,T*36
$ECXTE,A,A,0.328,L,N*46
$GPRMB,A,0.40,L,,,3653.7862,N,2443.8638,E,7.25,42.25,,V,A*7C
$GPRMC,090955,A,3648.4322,N,02437.7859,E,5.03,60.22,240715,3.96,E,A*1D
$IIVHW,,T,,M,6.94,N,12.85,K*60
$IIZDA,090955,24,07,2015,,*58
$IIAPB,A,A,0.40,L,N,V,V,,M,,,M,,M,A*6B
$IIMWV,293.17,R,16.06,N,A*02
$IIVLW,149.25,N,149.25,N,,N,,N*4D
$IIVTG,60.2,T,,M,5.0,N,9.3,K,A*21
$IIXTE,A,A,0.40,L,N,A*10
$IIMDA,,P,,B,23.2,C,24.7,C,,,,C,,T,,M,,N,,M*01
$GPGGA,090955,3648.4324,N,02437.7864,E,1,9,0.84,9.12,M,30.46,M*4B
$SDDPT,101.77,0.00,*7B
$IIAPB,A,A,0.40,L,N,V,V,,M,,,M,,M,A*6B
$IIMWV,294.09,R,15.98,N,A*0E
$SDDBT,333.89,f,101.77,M,55.65,F*07
$ECRMB,A,0.328,L,002,003,3653.412,N,02443.775,E,6.917,43.907,5.000,V*2A
$ECRMC,091003,A,3648.432,N,02437.786,E,5.000,60.200,240715,3.960,E*53
$ECAPB,A,A,0.33,L,N,V,V,46.747,T,003,43.907,T,43.907,T*36
$ECXTE,A,A,0.328,L,N*46
$GPGLL,3648.4332,N,02437.7881,E,090956,A,A*4F
$HCHDG,,,,4.0,E*03
$IIMDA,,P,,B,23.2,C,24.7,C,,,,C,,T,,M,,N,,M*01
$IIMTW,24.73,C*21
$GPGGA,090956,3648.4332,N,02437.7883,E,1,9,0.84,9.29,M,30.46,M*4E
$SDDPT,101.77,0.00,*7B
$GPRMB,A,0.40,L,,,3653.7862,N,2443.8638,E,7.24,42.24,,V,A*7C
$GPRMC,090957,A,3648.4338,N,02437.7893,E,5.31,59.77,240715,3.96,E,A*19
$IIVHW,,T,,M,7.08,N,13.10,K*69
$IIZDA,090957,24,07,2015,,*5A
$IIAPB,A,A,0.40,L,N,V,V,,M,,,M,,M,A*6B
$IIMWV,293.42,R,16.00,N,A*04
$IIVLW,149.26,N,149.26,N,,N,,N*4D
$ECRMB,A,0.329,L,002,003,3653.412,N,02443.775,E,6.914,43.900,5.310,V*2D
$ECRMC,091004,A,3648.434,N,02437.789,E,5.310,59.770,240715,3.960,E*57
$ECAPB,A,A,0.33,L,N,V,V,46.747,T,003,43.900,T,43.900,T*36
$ECXTE,A,A,0.329,L,N*47
$IIVTG,59.8,T,,M,5.3,N,9.8,K,A*29
$IIXTE,A,A,0.40,L,N,A*10
$IIMDA,,P,,B,23.2,C,24.7,C,,,,C,,T,,M,,N,,M*01
$GPGGA,090957,3648.4340,N,02437.7898,E,1,9,0.84,9.27,M,30.46,M*4E
$SDDPT,101.77,0.00,*7B
$IIAPB,A,A,0.40,L,N,V,V,,M,,,M,,M,A*6B
$IIMWV,294.00,R,16.02,N,A*07
$SDDBT,333.89,f,101.77,M,55.65,F*07
$GPGLL,3648.4349,N,02437.7915,E,090958,A,A*41
$GPGSA,M,1,24,12,15,17,06,02,25,14,29,,,,1.4,0.8,1.1*3B
$ECRMB,A,0.329,L,002,003,3653.412,N,02443.775,E,6.912,43.896,5.300,V*24
$ECRMC,091005,A,3648.435,N,02437.791,E,5.300,59.800,240715,3.960,E*57
$ECAPB,A,A,0.33,L,N,V,V,46.747,T,003,43.896,T,43.896,T*36
$ECXTE,A,A,0.329,L,N*47
$GPGSV,3,1,09,24,71,158,45,12,63,351,45,15,06,189,40,17,03,045,30*7E
$GPGSV,3,2,09,06,32,066,42,02,43,114,45,25,37,298,42,14,24,301,40*73
$GPGSV,3,3,09,29,26,227,44*48
$HCHDG,,,,4.0,E*03
$IIMDA,,P,,B,23.2,C,24.7,C,,,,C,,T,,M,,N,,M*01
$IIMTW,24.73,C*21
$GPGGA,090958,3648.4350,N,02437.7915,E,1,9,0.84,9.41,M,30.46,M*44
$SDDPT,101.77,0.00,*7B
$GPRMB,A,0.40,L,,,3653.7862,N,2443.8638,E,7.24,42.24,,V,A*7C
$GPRMC,090959,A,3648.4355,N,02437.7925,E,5.03,57.54,240715,3.96,E,A*1E
$IIVHW,,T,,M,7.08,N,13.10,K*69
$ECRMB,A,0.330,L,002,003,3653.412,N,02443.775,E,6.911,43.895,5.030,V*2C
$ECRMC,091006,A,3648.436,N,02437.793,E,5.030,57.540,240715,3.960,E*52
$ECAPB,A,A,0.33,L,N,V,V,46.747,T,003,43.895,T,43.895,T*36
$ECXTE,A,A,0.330,L,N*4F
$IIZDA,090959,24,07,2015,,*54
$IIAPB,A,A,0.40,L,N,V,V,,M,,,M,,M,A*6B
$IIMWV,293.18,R,15.98,N,A*09
$IIVLW,149.26,N,149.26,N,,N,,N*4D
$IIVTG,57.5,T,,M,5.0,N,9.3,K,A*22
$IIXTE,A,A,0.40,L,N,A*10
$IIMDA,,P,,B,23.2,C,24.7,C,,,,C,,T,,M,,N,,M*01
$GPGGA,090959,3648.4358,N,02437.7931,E,1,9,0.84,9.24,M,30.46,M*48
$SDDPT,101.77,0.00,*7B
$IIAPB,A,A,0.40,L,N,V,V,,M,,,M,,M,A*6B
$IIMWV,293.17,R,15.92,N,A*0C
$ECRMB,A,0.330,L,002,003,3653.412,N,02443.775,E,6.911,43.895,5.000,V*2F
$ECRMC,091007,A,3648.436,N,02437.793,E,5.000,57.500,240715,3.960,E*54
$ECAPB,A,A,0.33,L,N,V,V,46.747,T,003,43.895,T,43.895,T*36
$ECXTE,A,A,0.330,L,N*4F
$SDDBT,333.89,f,101.77,M,55.65,F*07
$GPGLL,3648.4365,N,02437.7948,E,091000,A,A*42
$HCHDG,,,,4.0,E*03
$IIMDA,,P,,B,23.2,C,24.7,C,,,,C,,T,,M,,N,,M*01
$IIMTW,24.73,C*21
$GPGGA,091000,3648.4366,N,02437.7947,E,1,9,0.84,9.40,M,30.46,M*42
$SDDPT,101.77,0.00,*7B
$GPRMB,A,0.40,L,,,3653.7862,N,2443.8638,E,7.24,42.23,,V,A*7B
$GPRMC,091001,A,3648.4371,N,02437.7957,E,4.90,59.40,240715,3.96,E,A*18
$IIVHW,,T,,M,6.88,N,12.74,K*63
$IIZDA,091001,24,07,2015,,*51
$IIAPB,A,A,0.40,L,N,V,V,,M,,,M,,M,A*6B
$IIMWV,292.87,R,15.84,N,A*03
$ECRMB,A,0.330,L,002,003,3653.412,N,02443.775,E,6.908,43.888,4.900,V*23
$ECRMC,091008,A,3648.437,N,02437.796,E,4.900,59.400,240715,3.960,E*58
$ECAPB,A,A,0.33,L,N,V,V,46.747,T,003,43.888,T,43.888,T*36
$ECXTE,A,A,0.330,L,N*4F
$IIVLW,149.26,N,149.26,N,,N,,N*4D
$IIVTG,59.4,T,,M,4.9,N,9.1,K,A*27
$IIXTE,A,A,0.40,L,N,A*10
$IIMDA,,P,,B,23.2,C,24.7,C,,,,C,,T,,M,,N,,M*01
$GPGGA,091001,3648.4373,N,02437.7962,E,1,9,0.84,9.44,M,30.46,M*44
$SDDPT,101.77,0.00,*7B
$IIAPB,A,A,0.40,L,N,V,V,,M,,,M,,M,A*6B
$IIMWV,291.99,R,15.84,N,A*0F
$SDDBT,333.89,f,101.77,M,55.65,F*07
$GPGLL,3648.4380,N,02437.7977,E,091002,A,A*47
$ECRMB,A,0.331,L,002,003,3653.412,N,02443.775,E,6.906,43.884,4.900,V*20
$ECRMC,091009,A,3648.438,N,02437.798,E,4.900,59.400,240715,3.960,E*58
$ECAPB,A,A,0.33,L,N,V,V,46.747,T,003,43.884,T,43.884,T*36
$ECXTE,A,A,0.331,L,N*4E
$GPGSA,M,1,24,12,15,17,06,02,25,14,29,,,,1.4,0.8,1.1*3B
$GPGSV,3,1,09,24,71,158,44,12,63,351,45,15,06,189,38,17,03,045,30*70
$GPGSV,3,2,09,06,32,066,41,02,43,114,44,25,37,298,42,14,24,300,40*70
$GPGSV,3,3,09,29,26,227,43*4F
$HCHDG,,,,4.0,E*03
$IIMDA,,P,,B,23.2,C,24.7,C,,,,C,,T,,M,,N,,M*01
$IIMTW,24.73,C*21
$GPGGA,091002,3648.4381,N,02437.7978,E,1,9,0.84,9.25,M,30.46,M*46
$SDDPT,101.77,0.00,*7B
$GPRMB,A,0.40,L,,,3653.7862,N,2443.8638,E,7.24,42.23,,V,A*7B
$GPRMC,091003,A,3648.4386,N,02437.7990,E,5.27,60.48,240715,3.96,E,A*16
$IIVHW,,T,,M,6.84,N,12.67,K*6D
$IIZDA,091003,24,07,2015,,*53
$IIAPB,A,A,0.40,L,N,V,V,,M,,,M,,M,A*6B
$ECRMB,A,0.331,L,002,003,3653.412,N,02443.775,E,6.905,43.881,5.270,V*2B
$ECRMC,091010,A,3648.439,N,02437.799,E,5.270,60.480,240715,3.960,E*5F
$ECAPB,A,A,0.33,L,N,V,V,46.747,T,003,43.881,T,43.881,T*36
$ECXTE,A,A,0.331,L,N*4E
$IIMWV,292.14,R,15.75,N,A*07
$IIVLW,149.27,N,149.27,N,,N,,N*4D
$IIVTG,60.5,T,,M,5.3,N,9.8,K,A*2E
$IIXTE,A,A,0.40,L,N,A*10
$IIMDA,,P,,B,23.2,C,24.7,C,,,,C,,T,,M,,N,,M*01
$GPGGA,091003,3648.4389,N,02437.7995,E,1,9,0.84,9.26,M,30.46,M*4F
$SDDPT,101.77,0.00,*7B
$IIAPB,A,A,0.40,L,N,V,V,,M,,,M,,M,A*6B
$IIMWV,292.06,R,15.67,N,A*07
$ECRMB,A,0.331,L,002,003,3653.412,N,02443.775,E,6.905,43.881,5.300,V*2D
$ECRMC,091011,A,3648.439,N,02437.799,E,5.300,60.500,240715,3.960,E*51
$ECAPB,A,A,0.33,L,N,V,V,46.747,T,003,43.881,T,43.881,T*36
$ECXTE,A,A,0.331,L,N*4E
$SDDBT,333.89,f,101.77,M,55.65,F*07
$GPGLL,3648.4396,N,02437.8010,E,091004,A,A*41
$HCHDG,,,,4.0,E*03
$IIMDA,,P,,B,23.2,C,24.7,C,,,,C,,T,,M,,N,,M*01
$IIMTW,24.72,C*20
$GPGGA,091004,3648.4396,N,02437.8011,E,1,9,0.84,9.12,M,30.46,M*4B
$SDDPT,101.77,0.00,*7B
$GPRMB,A,0.40,L,,,3653.7862,N,2443.8638,E,7.23,42.22,,V,A*7D
$GPRMC,091005,A,3648.4401,N,02437.8021,E,5.05,60.48,240715,3.96,E,A*14
$IIVHW,,T,,M,6.75,N,12.49,K*6F
$IIZDA,091005,24,07,2015,,*55
$IIAPB,A,A,0.40,L,N,V,V,,M,,,M,,M,A*6B
$IIMWV,291.81,R,15.57,N,A*08
$IIVLW,149.27,N,149.27,N,,N,,N*4D
$IIVTG,60.5,T,,M,5.1,N,9.4,K,A*20
$IIXTE,A,A,0.40,L,N,A*10
$ECRMB,A,0.331,L,002,003,3653.412,N,02443.775,E,6.902,43.875,5.100,V*23
$ECRMC,091012,A,3648.440,N,02437.802,E,5.100,60.500,240715,3.960,E*53
$ECAPB,A,A,0.33,L,N,V,V,46.747,T,003,43.875,T,43.875,T*36
$ECXTE,A,A,0.331,L,N*4E
$IIMDA,,P,,B,23.2,C,24.7,C,,,,C,,T,,M,,N,,M*01
$GPGGA,091005,3648.4403,N,02437.8027,E,1,9,0.84,8.96,M,30.46,M*49
$SDDPT,101.77,0.00,*7B
$IIAPB,A,A,0.40,L,N,V,V,,M,,,M,,M,A*6B
$IIMWV,291.94,R,15.49,N,A*03
$SDDBT,333.89,f,101.77,M,55.65,F*07
$GPGLL,3648.4410,N,02437.8044,E,091006,A,A*4B
$GPGSA,M,1,24,12,15,17,06,02,25,14,29,,,,1.4,0.8,1.1*3B
$GPGSV,3,1,09,24,71,158,44,12,63,351,45,15,06,189,38,17,03,045,28*79
$GPGSV,3,2,09,06,32,066,41,02,43,114,44,25,37,298,42,14,24,300,40*70
$ECRMB,A,0.332,L,002,003,3653.412,N,02443.775,E,6.900,43.869,5.100,V*2F
$ECRMC,091013,A,3648.441,N,02437.804,E,5.100,60.500,240715,3.960,E*55
$ECAPB,A,A,0.33,L,N,V,V,46.747,T,003,43.869,T,43.869,T*36
$ECXTE,A,A,0.332,L,N*4D
$GPGSV,3,3,09,29,26,227,44*48
$HCHDG,,,,4.0,E*03
$IIMDA,,P,,B,23.2,C,24.7,C,,,,C,,T,,M,,N,,M*01
$IIMTW,24.72,C*20
$GPGGA,091006,3648.4410,N,02437.8043,E,1,9,0.84,8.64,M,30.46,M*47
$SDDPT,101.77,0.00,*7B
$GPRMB,A,0.40,L,,,3653.7862,N,2443.8638,E,7.23,42.21,,V,A*7E
$GPRMC,091007,A,3648.4415,N,02437.8053,E,4.76,56.30,240715,3.96,E,A*19
$IIVHW,,T,,M,6.73,N,12.46,K*66
$IIZDA,091007,24,07,2015,,*57
$ECRMB,A,0.332,L,002,003,3653.412,N,02443.775,E,6.899,43.868,4.760,V*2E
$ECRMC,091014,A,3648.441,N,02437.805,E,4.760,56.300,240715,3.960,E*51
$ECAPB,A,A,0.33,L,N,V,V,46.747,T,003,43.868,T,43.868,T*36
$ECXTE,A,A,0.332,L,N*4D
$IIAPB,A,A,0.40,L,N,V,V,,M,,,M,,M,A*6B
$IIMWV,291.44,R,15.43,N,A*04
$IIVLW,149.27,N,149.27,N,,N,,N*4D
$IIVTG,56.3,T,,M,4.8,N,8.8,K,A*26
$IIXTE,A,A,0.40,L,N,A*10
$IIMDA,,P,,B,23.2,C,24.7,C,,,,C,,T,,M,,N,,M*01
$GPGGA,091007,3648.4418,N,02437.8059,E,1,9,0.84,8.66,M,30.46,M*47
$SDDPT,101.70,0.00,*7C
$IIAPB,A,A,0.40,L,N,V,V,,M,,,M,,M,A*6B
$IIMWV,290.93,R,15.45,N,A*09
$SDDBT,333.66,f,101.70,M,55.61,F*05
$GPGLL,3648.4425,N,02437.8074,E,091008,A,A*40
$HCHDG,,,,4.0,E*03
$IIMDA,,P,,B,23.2,C,24.7,C,,,,C,,T,,M,,N,,M*01
$ECRMB,A,0.333,L,002,003,3653.412,N,02443.775,E,6.897,43.863,4.800,V*23
$ECRMC,091015,A,3648.443,N,02437.807,E,4.800,56.300,240715,4.000,E*51
$ECAPB,A,A,0.33,L,N,V,V,46.747,T,003,43.863,T,43.863,T*36
$ECXTE,A,A,0.333,L,N*4C
$IIMTW,24.72,C*20
$GPGGA,091008,3648.4425,N,02437.8076,E,1,9,0.84,8.77,M,30.46,M*4B
$SDDPT,101.70,0.00,*7C
$GPRMB,A,0.40,L,,,3653.7862,N,2443.8638,E,7.23,42.20,,V,A*7F
$GPRMC,091009,A,3648.4430,N,02437.8089,E,5.52,65.45,240715,3.96,E,A*12
$IIVHW,,T,,M,6.94,N,12.85,K*60
$IIZDA,091009,24,07,2015,,*59
$IIAPB,A,A,0.40,L,N,V,V,,M,,,M,,M,A*6B
$IIMWV,291.22,R,15.36,N,A*06
$IIVLW,149.28,N,149.28,N,,N,,N*4D
$IIVTG,65.4,T,,M,5.5,N,10.2,K,A*1E
$ECRMB,A,0.333,L,002,003,3653.412,N,02443.775,E,6.896,43.859,5.500,V*27
$ECRMC,091016,A,3648.443,N,02437.809,E,5.500,65.400,240715,3.960,E*5F
$ECAPB,A,A,0.33,L,N,V,V,46.747,T,003,43.859,T,43.859,T*36
$ECXTE,A,A,0.333,L,N*4C
$IIXTE,A,A,0.40,L,N,A*10
$IIMDA,,P,,B,23.2,C,24.7,C,,,,C,,T,,M,,N,,M*01
$GPGGA,091009,3648.4432,N,02437.8093,E,1,9,0.84,8.85,M,30.46,M*4A
$SDDPT,101.77,0.00,*7B
$IIAPB,A,A,0.41,L,N,V,V,,M,,,M,,M,A*6A
$IIMWV,291.40,R,15.24,N,A*01
$SDDBT,333.89,f,101.77,M,55.65,F*07
$GPGLL,3648.4438,N,02437.8108,E,091010,A,A*4F
$GPGSA,M,1,24,12,15,17,06,02,25,14,29,,,,1.4,0.8,1.1*3B
$GPGSV,3,1,09,24,71,158,45,12,63,351,45,15,06,189,40,17,02,045,26*78
$ECRMB,A,0.334,L,002,003,3653.412,N,02443.775,E,6.894,43.855,5.500,V*2E
$ECRMC,091017,A,3648.444,N,02437.811,E,5.500,65.400,240715,3.960,E*50
$ECAPB,A,A,0.33,L,N,V,V,46.747,T,003,43.855,T,43.855,T*36
$ECXTE,A,A,0.334,L,N*4B
$GPGSV,3,2,09,06,32,066,41,02,43,114,45,25,37,298,42,14,24,300,40*71
$GPGSV,3,3,09,29,26,227,44*48
$HCHDG,,,,4.0,E*03
$IIMDA,,P,,B,23.2,C,24.7,C,,,,C,,T,,M,,N,,M*01
$IIMTW,24.73,C*21
$GPGGA,091010,3648.4439,N,02437.8109,E,1,9,0.84,9.11,M,30.46,M*47
$SDDPT,101.77,0.00,*7B
$GPRMB,A,0.41,L,,,3653.7862,N,2443.8638,E,7.22,42.19,,V,A*75
$GPRMC,091011,A,3648.4444,N,02437.8120,E,5.15,64.02,240715,3.96,E,A*1B
$IIVHW,,T,,M,6.69,N,12.38,K*64
$IIAPB,A,A,0.41,L,N,V,V,,M,,,M,,M,A*6A
$ECRMB,A,0.334,L,002,003,3653.412,N,02443.775,E,6.893,43.852,5.150,V*2F
$ECRMC,091018,A,3648.444,N,02437.812,E,5.150,64.020,240715,3.960,E*5A
$ECAPB,A,A,0.33,L,N,V,V,46.747,T,003,43.852,T,43.852,T*36
$ECXTE,A,A,0.334,L,N*4B
$IIMWV,291.20,R,15.16,N,A*06
$IIZDA,091011,24,07,2015,,*50
$IIVLW,149.28,N,149.28,N,,N,,N*4D
$IIVTG,64.0,T,,M,5.2,N,9.5,K,A*23
$IIXTE,A,A,0.41,L,N,A*11
$IIMDA,,P,,B,23.2,C,24.7,C,,,,C,,T,,M,,N,,M*01
$GPGGA,091011,3648.4446,N,02437.8124,E,1,9,0.84,9.01,M,30.46,M*40
$SDDPT,101.77,0.00,*7B
$IIAPB,A,A,0.41,L,N,V,V,,M,,,M,,M,A*6A
$IIMWV,291.51,R,15.10,N,A*06
$SDDBT,333.89,f,101.77,M,55.65,F*07
$GPGLL,3648.4453,N,02437.8139,E,091012,A,A*42
$HCHDG,,,,4.0,E*03
$IIMDA,,P,,B,23.2,C,24.7,C,,,,C,,T,,M,,N,,M*01
$IIMTW,24.73,C*21
$ECRMB,A,0.334,L,002,003,3653.412,N,02443.775,E,6.892,43.848,5.200,V*23
$ECRMC,091019,A,3648.445,N,02437.814,E,5.200,64.000,240715,4.000,E*50
$ECAPB,A,A,0.33,L,N,V,V,46.747,T,003,43.848,T,43.848,T*36
$ECXTE,A,A,0.334,L,N*4B
$GPGGA,091012,3648.4453,N,02437.8140,E,1,9,0.84,9.05,M,30.46,M*41
$SDDPT,101.77,0.00,*7B
$GPRMB,A,0.41,L,,,3653.7862,N,2443.8638,E,7.22,42.19,,V,A*75
$GPRMC,091013,A,3648.4458,N,02437.8151,E,5.35,60.85,240715,3.96,E,A*1B
$IIVHW,,T,,M,6.53,N,12.10,K*67
$IIZDA,091013,24,07,2015,,*52
$IIAPB,A,A,0.41,L,N,V,V,,M,,,M,,M,A*6A
$IIMWV,292.58,R,15.03,N,A*0E
$IIVLW,149.29,N,149.29,N,,N,,N*4D
$ECRMB,A,0.334,L,002,003,3653.412,N,02443.775,E,6.891,43.845,5.350,V*29
$ECRMC,091020,A,3648.446,N,02437.815,E,5.350,60.850,240715,3.960,E*5D
$ECAPB,A,A,0.33,L,N,V,V,46.747,T,003,43.845,T,43.845,T*36
$ECXTE,A,A,0.334,L,N*4B
$IIVTG,60.8,T,,M,5.4,N,9.9,K,A*25
$IIXTE,A,A,0.41,L,N,A*11
$IIMDA,,P,,B,23.2,C,24.7,C,,,,C,,T,,M,,N,,M*01
$GPGGA,091013,3648.4460,N,02437.8156,E,1,9,0.84,9.17,M,30.46,M*44
$SDDPT,101.62,0.00,*7F
$IIAPB,A,A,0.41,L,N,V,V,,M,,,M,,M,A*6A
$IIMWV,291.87,R,14.95,N,A*01
$SDDBT,333.40,f,101.62,M,55.57,F*07
$GPGLL,3648.4467,N,02437.8170,E,091014,A,A*4E
$GPGSA,M,1,24,12,15,17,06,02,25,14,29,,,,1.4,0.8,1.1*3B
$GPGSV,3,1,09,24,71,158,44,12,63,351,45,15,06,189,40,17,02,045,29*76
$GPGSV,3,2,09,06,32,066,41,02,43,114,44,25,37,298,41,14,24,300,40*73
$GPGSV,3,3,09,29,26,227,43*4F
$HCHDG,,,,4.0,E*03
$ECRMB,A,0.335,L,002,003,3653.412,N,02443.775,E,6.889,43.842,5.400,V*24
$ECRMC,091021,A,3648.447,N,02437.817,E,5.400,60.800,240715,4.000,E*50
$ECAPB,A,A,0.33,L,N,V,V,46.747,T,003,43.842,T,43.842,T*36
$ECXTE,A,A,0.335,L,N*4A
$IIMDA,,P,,B,23.2,C,24.7,C,,,,C,,T,,M,,N,,M*01
$IIMTW,24.73,C*21
$GPGGA,091014,3648.4467,N,02437.8173,E,1,9,0.84,8.79,M,30.46,M*4A
$SDDPT,101.62,0.00,*7F
$GPRMB,A,0.41,L,,,3653.7862,N,2443.8638,E,7.22,42.18,,V,A*74
$GPRMC,091015,A,3648.4472,N,02437.8185,E,5.73,64.97,240715,3.96,E,A*19
$IIVHW,,T,,M,6.57,N,12.17,K*64
$ECRMB,A,0.335,L,002,003,3653.412,N,02443.775,E,6.888,43.837,5.730,V*27
$ECRMC,091022,A,3648.447,N,02437.818,E,5.730,64.970,240715,3.960,E*56
$ECAPB,A,A,0.34,L,N,V,V,46.747,T,003,43.837,T,43.837,T*31
$ECXTE,A,A,0.335,L,N*4A
$IIZDA,091015,24,07,2015,,*54
$IIAPB,A,A,0.41,L,N,V,V,,M,,,M,,M,A*6A
$IIMWV,293.06,R,14.77,N,A*06
$IIVLW,149.29,N,149.29,N,,N,,N*4D
$IIVTG,65.0,T,,M,5.7,N,10.6,K,A*1C
$IIXTE,A,A,0.41,L,N,A*11
$IIMDA,,P,,B,23.3,C,24.7,C,,,,C,,T,,M,,N,,M*00
$GPGGA,091015,3648.4474,N,02437.8189,E,1,9,0.84,8.83,M,30.46,M*49
$SDDPT,101.55,0.00,*7B
$IIAPB,A,A,0.41,L,N,V,V,,M,,,M,,M,A*6A
$IIMWV,292.27,R,14.71,N,A*02
$SDDBT,333.40,f,101.62,M,55.57,F*07
$GPGLL,3648.4480,N,02437.8202,E,091016,A,A*43
$HCHDG,,,,4.0,E*03
$IIMDA,,P,,B,23.3,C,24.7,C,,,,C,,T,,M,,N,,M*00
$IIMTW,24.73,C*21
$ECRMB,A,0.336,L,002,003,3653.412,N,02443.775,E,6.886,43.834,5.700,V*2A
$ECRMC,091023,A,3648.448,N,02437.820,E,5.700,65.000,240715,4.000,E*57
$ECAPB,A,A,0.34,L,N,V,V,46.747,T,003,43.834,T,43.834,T*31
$ECXTE,A,A,0.336,L,N*49
$GPGGA,091016,3648.4482,N,02437.8204,E,1,9,0.84,8.59,M,30.46,M*42
$SDDPT,101.62,0.00,*7F
$GPRMB,A,0.41,L,,,3653.7862,N,2443.8638,E,7.22,42.17,,V,A*7B
$GPRMC,091017,A,3648.4487,N,02437.8215,E,5.15,59.64,240715,3.96,E,A*19
$IIVHW,,T,,M,6.40,N,11.84,K*6B
$IIZDA,091017,24,07,2015,,*56
$IIAPB,A,A,0.41,L,N,V,V,,M,,,M,,M,A*6A
$IIMWV,293.15,R,14.56,N,A*07
$IIVLW,149.29,N,149.29,N,,N,,N*4D
$IIVTG,59.6,T,,M,5.2,N,9.5,K,A*2B
$IIXTE,A,A,0.41,L,N,A*11
$IIMDA,,P,,B,23.2,C,24.7,C,,,,C,,T,,M,,N,,M*01
$ECRMB,A,0.336,L,002,003,3653.412,N,02443.775,E,6.885,43.831,5.200,V*29
$ECRMC,091024,A,3648.449,N,02437.822,E,5.200,59.600,240715,3.960,E*57
$ECAPB,A,A,0.34,L,N,V,V,46.747,T,003,43.831,T,43.831,T*31
$ECXTE,A,A,0.336,L,N*49
$GPGGA,091017,3648.4489,N,02437.8220,E,1,9,0.84,8.86,M,30.46,M*4C
$SDDPT,101.55,0.00,*7B
$IIAPB,A,A,0.41,L,N,V,V,,M,,,M,,M,A*6A
$IIMWV,292.08,R,14.42,N,A*0F
$SDDBT,332.91,f,101.47,M,55.48,F*03
$GPGLL,3648.4496,N,02437.8234,E,091018,A,A*4F
$GPGSA,M,1,24,12,15,17,06,02,25,14,29,,,,1.4,0.8,1.1*3B
$GPGSV,3,1,09,24,71,158,45,12,63,351,44,15,06,189,38,17,02,045,30*71
$GPGSV,3,2,09,06,32,066,41,02,43,114,44,25,37,298,42,14,24,300,40*70
$ECRMB,A,0.336,L,002,003,3653.412,N,02443.775,E,6.883,43.827,5.200,V*28
$ECRMC,091025,A,3648.450,N,02437.823,E,5.200,59.600,240715,3.960,E*5F
$ECAPB,A,A,0.34,L,N,V,V,46.747,T,003,43.827,T,43.827,T*31
$ECXTE,A,A,0.336,L,N*49
$GPGSV,3,3,09,29,26,227,43*4F
$HCHDG,,,,4.0,E*03
$IIMDA,,P,,B,23.2,C,24.7,C,,,,C,,T,,M,,N,,M*01
$IIMTW,24.73,C*21
$GPGGA,091018,3648.4497,N,02437.8236,E,1,9,0.84,8.58,M,30.46,M*48
$SDDPT,101.47,0.00,*78
$GPRMB,A,0.41,L,,,3653.7862,N,2443.8638,E,7.21,42.16,,V,A*79
$GPRMC,091019,A,3648.4501,N,02437.8248,E,5.46,63.89,240715,3.96,E,A*1C
$IIVHW,,T,,M,6.30,N,11.66,K*60
$IIZDA,091019,24,07,2015,,*58
$IIAPB,A,A,0.41,L,N,V,V,,M,,,M,,M,A*6A
$IIMWV,293.02,R,14.27,N,A*07
$IIVLW,149.30,N,149.30,N,,N,,N*4D
$ECRMB,A,0.337,L,002,003,3653.412,N,02443.775,E,6.882,43.824,5.460,V*2B
$ECRMC,091026,A,3648.450,N,02437.825,E,5.460,63.890,240715,3.960,E*54
$ECAPB,A,A,0.34,L,N,V,V,46.747,T,003,43.824,T,43.824,T*31
$ECXTE,A,A,0.337,L,N*48
$IIVTG,63.9,T,,M,5.5,N,10.1,K,A*16
$IIXTE,A,A,0.41,L,N,A*11
$IIMDA,,P,,B,23.3,C,24.7,C,,,,C,,T,,M,,N,,M*00
$GPGGA,091019,3648.4503,N,02437.8253,E,1,9,0.84,9.11,M,30.46,M*4A
$SDDPT,101.47,0.00,*78
$IIAPB,A,A,0.41,L,N,V,V,,M,,,M,,M,A*6A
$IIMWV,290.94,R,14.25,N,A*09
$SDDBT,332.91,f,101.47,M,55.48,F*03
$GPGLL,3648.4509,N,02437.8266,E,091020,A,A*44
$HCHDG,,,,4.0,E*03
$IIMDA,,P,,B,23.3,C,24.7,C,,,,C,,T,,M,,N,,M*00
$IIMTW,24.73,C*21
$ECRMB,A,0.337,L,002,003,3653.412,N,02443.775,E,6.881,43.820,5.500,V*2B
$ECRMC,091027,A,3648.451,N,02437.827,E,5.500,63.900,240715,4.000,E*51
$ECAPB,A,A,0.34,L,N,V,V,46.747,T,003,43.820,T,43.820,T*31
$ECXTE,A,A,0.337,L,N*48
$GPGGA,091020,3648.4510,N,02437.8267,E,1,9,0.84,8.84,M,30.46,M*48
$SDDPT,101.47,0.00,*78
$GPRMB,A,0.41,L,,,3653.7862,N,2443.8638,E,7.21,42.16,,V,A*79
$GPRMC,091021,A,3648.4514,N,02437.8281,E,5.60,65.56,240715,3.96,E,A*16
$IIZDA,091021,24,07,2015,,*53
$IIAPB,A,A,0.41,L,N,V,V,,M,,,M,,M,A*6A
$IIMWV,291.86,R,14.21,N,A*0F
$IIVHW,,T,,M,6.53,N,12.10,K*67
$IIVLW,149.30,N,149.30,N,,N,,N*4D
$IIVTG,65.6,T,,M,5.6,N,10.4,K,A*19
$IIXTE,A,A,0.41,L,N,A*11
$IIMDA,,P,,B,23.2,C,24.7,C,,,,C,,T,,M,,N,,M*01
$ECRMB,A,0.338,L,002,003,3653.412,N,02443.775,E,6.879,43.815,5.600,V*26
$ECRMC,091028,A,3648.451,N,02437.828,E,5.600,65.600,240715,3.960,E*53
$ECAPB,A,A,0.34,L,N,V,V,46.747,T,003,43.815,T,43.815,T*31
$ECXTE,A,A,0.338,L,N*47
$GPGGA,091021,3648.4516,N,02437.8286,E,1,9,0.84,9.33,M,30.46,M*4D
$SDDPT,101.47,0.00,*78
$IIAPB,A,A,0.41,L,N,V,V,,M,,,M,,M,A*6A
$IIMWV,290.87,R,14.13,N,A*0E
$SDDBT,333.17,f,101.55,M,55.53,F*05
$GPGLL,3648.4521,N,02437.8298,E,091022,A,A*4D
$GPGSA,M,1,24,12,15,17,06,02,25,14,29,,,,1.4,0.8,1.1*3B
$GPGSV,3,1,09,24,71,158,45,12,63,351,45,15,06,189,39,17,02,045,28*78
$ECRMB,A,0.338,L,002,003,3653.412,N,02443.775,E,6.878,43.811,5.600,V*23
$ECRMC,091029,A,3648.452,N,02437.830,E,5.600,65.600,240715,3.960,E*58
$ECAPB,A,A,0.34,L,N,V,V,46.747,T,003,43.811,T,43.811,T*31
$ECXTE,A,A,0.338,L,N*47
$GPGSV,3,2,09,06,32,066,40,02,43,114,44,25,37,298,42,14,24,300,40*71
$GPGSV,3,3,09,29,26,227,44*48
$HCHDG,,,,4.0,E*03
$IIMDA,,P,,B,23.2,C,24.7,C,,,,C,,T,,M,,N,,M*01
$IIMTW,24.71,C*23
$GPGGA,091022,3648.4522,N,02437.8298,E,1,9,0.84,9.24,M,30.46,M*40
$SDDPT,101.55,0.00,*7B
$GPRMB,A,0.41,L,,,3653.7862,N,2443.8638,E,7.21,42.15,,V,A*7A
$GPRMC,091023,A,3648.4527,N,02437.8309,E,5.17,59.99,240715,3.96,E,A*19
$IIZDA,091023,24,07,2015,,*51
$IIAPB,A,A,0.41,L,N,V,V,,M,,,M,,M,A*6A
$IIMWV,291.13,R,14.07,N,A*07
$IIVHW,,T,,M,6.69,N,12.38,K*64
$IIVLW,149.30,N,149.30,N,,N,,N*4D
$IIVTG,60.0,T,,M,5.2,N,9.6,K,A*24
$IIXTE,A,A,0.41,L,N,A*11
$ECRMB,A,0.338,L,002,003,3653.412,N,02443.775,E,6.877,43.809,5.200,V*21
$ECRMC,091030,A,3648.453,N,02437.831,E,5.200,60.000,240715,3.960,E*57
$ECAPB,A,A,0.34,L,N,V,V,46.747,T,003,43.809,T,43.809,T*31
$ECXTE,A,A,0.338,L,N*47
$IIMDA,,P,,B,23.2,C,24.7,C,,,,C,,T,,M,,N,,M*01
$GPGGA,091023,3648.4529,N,02437.8314,E,1,9,0.84,9.57,M,30.46,M*4B
$SDDPT,101.47,0.00,*78
$IIAPB,A,A,0.41,L,N,V,V,,M,,,M,,M,A*6A
$IIMWV,290.08,R,14.11,N,A*0B
$SDDBT,333.40,f,101.62,M,55.57,F*07
$GPGLL,3648.4534,N,02437.8330,E,091024,A,A*4C
$HCHDG,,,,4.0,E*03
$ECRMB,A,0.339,L,002,003,3653.412,N,02443.775,E,6.875,43.803,5.200,V*28
$ECRMC,091031,A,3648.453,N,02437.833,E,5.200,60.000,240715,4.000,E*5C
$ECAPB,A,A,0.34,L,N,V,V,46.747,T,003,43.803,T,43.803,T*31
$ECXTE,A,A,0.339,L,N*46
$IIMDA,,P,,B,23.2,C,24.7,C,,,,C,,T,,M,,N,,M*01
$IIMTW,24.73,C*21
$GPGGA,091024,3648.4536,N,02437.8331,E,1,9,0.84,9.49,M,30.46,M*4A
$SDDPT,101.62,0.00,*7F
$GPRMB,A,0.41,L,,,3653.7862,N,2443.8638,E,7.21,42.14,,V,A*7B
$GPRMC,091025,A,3648.4541,N,02437.8342,E,5.27,59.42,240715,3.96,E,A*15
$IIZDA,091025,24,07,2015,,*57
$IIAPB,A,A,0.41,L,N,V,V,,M,,,M,,M,A*6A
$IIMWV,290.08,R,14.15,N,A*0F
$IIVHW,,T,,M,6.34,N,11.74,K*67
$IIVLW,149.31,N,149.31,N,,N,,N*4D
$IIVTG,59.4,T,,M,5.3,N,9.8,K,A*25
$IIXTE,A,A,0.41,L,N,A*11
$IIMDA,,P,,B,23.2,C,24.7,C,,,,C,,T,,M,,N,,M*01
$GPGGA,091025,3648.4542,N,02437.8347,E,1,9,0.84,9.42,M,30.46,M*42
$ECRMB,A,0.339,L,002,003,3653.412,N,02443.775,E,6.874,43.801,5.300,V*2A
$ECRMC,091032,A,3648.454,N,02437.834,E,5.300,59.400,240715,3.960,E*58
$ECAPB,A,A,0.34,L,N,V,V,46.747,T,003,43.801,T,43.801,T*31
$ECXTE,A,A,0.339,L,N*46
$SDDPT,101.77,0.00,*7B
$IIAPB,A,A,0.41,L,N,V,V,,M,,,M,,M,A*6A
$IIMWV,290.19,R,14.17,N,A*0D
$SDDBT,333.89,f,101.77,M,55.65,F*07
$GPGLL,3648.4549,N,02437.8361,E,091026,A,A*40
$GPGSA,M,1,24,12,15,17,06,02,25,14,29,,,,1.4,0.8,1.1*3B
$GPGSV,3,1,09,24,71,158,44,12,63,351,44,15,06,189,40,17,02,045,28*76
$GPGSV,3,2,09,06,32,066,42,02,43,114,44,25,37,299,42,14,24,300,40*72
$GPGSV,3,3,09,29,26,227,43*4F
$HCHDG,,,,4.0,E*03
$IIMDA,,P,,B,23.2,C,24.7,C,,,,C,,T,,M,,N,,M*01
$IIMTW,24.71,C*23
$ECRMB,A,0.339,L,002,003,3653.412,N,02443.775,E,6.872,43.797,5.300,V*2C
$ECRMC,091033,A,3648.455,N,02437.836,E,5.300,59.400,240715,4.000,E*52
$ECAPB,A,A,0.34,L,N,V,V,46.747,T,003,43.797,T,43.797,T*31
$ECXTE,A,A,0.339,L,N*46
$GPGGA,091026,3648.4549,N,02437.8363,E,1,9,0.84,9.31,M,30.46,M*48
$SDDPT,101.77,0.00,*7B
$GPRMB,A,0.41,L,,,3653.7862,N,2443.8638,E,7.20,42.14,,V,A*7A
$GPRMC,091027,A,3648.4554,N,02437.8374,E,5.27,61.67,240715,3.96,E,A*1A
$IIZDA,091027,24,07,2015,,*55
$IIAPB,A,A,0.41,L,N,V,V,,M,,,M,,M,A*6A
$IIMWV,289.94,R,14.17,N,A*00
$IIVHW,,T,,M,6.24,N,11.56,K*66
$IIVLW,149.31,N,149.31,N,,N,,N*4D
$IIVTG,61.7,T,,M,5.3,N,9.8,K,A*2D
$ECRMB,A,0.340,L,002,003,3653.412,N,02443.775,E,6.871,43.794,5.300,V*22
$ECRMC,091034,A,3648.455,N,02437.837,E,5.300,61.700,240715,3.960,E*54
$ECAPB,A,A,0.34,L,N,V,V,46.747,T,003,43.794,T,43.794,T*31
$ECXTE,A,A,0.340,L,N*48
$IIXTE,A,A,0.41,L,N,A*11
$IIMDA,,P,,B,23.1,C,24.7,C,,,,C,,T,,M,,N,,M*02
$GPGGA,091027,3648.4556,N,02437.8379,E,1,9,0.84,8.99,M,30.46,M*4F
$SDDPT,101.77,0.00,*7B
$IIAPB,A,A,0.41,L,N,V,V,,M,,,M,,M,A*6A
$IIMWV,290.84,R,14.25,N,A*08
$SDDBT,333.89,f,101.77,M,55.65,F*07
$GPGLL,3648.4563,N,02437.8393,E,091028,A,A*4B
$HCHDG,,,,4.0,E*03
$IIMDA,,P,,B,23.1,C,24.7,C,,,,C,,T,,M,,N,,M*02
$IIMTW,24.73,C*21
$GPGGA,091028,3648.4564,N,02437.8394,E,1,9,0.84,9.15,M,30.46,M*47
$SDDPT,101.77,0.00,*7B
$ECRMB,A,0.340,L,002,003,3653.412,N,02443.775,E,6.870,43.790,5.300,V*27
$ECRMC,091035,A,3648.456,N,02437.839,E,5.300,61.700,240715,4.000,E*50
$ECAPB,A,A,0.34,L,N,V,V,46.747,T,003,43.790,T,43.790,T*31
$ECXTE,A,A,0.340,L,N*48
$GPRMB,A,0.41,L,,,3653.7862,N,2443.8638,E,7.20,42.12,,V,A*7C
$GPRMC,091029,A,3648.4569,N,02437.8404,E,5.03,57.87,240715,3.96,E,A*17
$IIZDA,091029,24,07,2015,,*5B
$IIAPB,A,A,0.41,L,N,V,V,,M,,,M,,M,A*6A
$IIMWV,290.34,R,14.33,N,A*04
$IIVHW,,T,,M,6.28,N,11.63,K*6C
$IIVLW,149.31,N,149.31,N,,N,,N*4D
$IIVTG,57.9,T,,M,5.0,N,9.3,K,A*2E
$IIXTE,A,A,0.41,L,N,A*11
$IIMDA,,P,,B,23.3,C,24.7,C,,,,C,,T,,M,,N,,M*00
$ECRMB,A,0.340,L,002,003,3653.412,N,02443.775,E,6.869,43.788,5.000,V*25
$ECRMC,091036,A,3648.457,N,02437.840,E,5.000,57.900,240715,3.960,E*5C
$ECAPB,A,A,0.34,L,N,V,V,46.747,T,003,43.788,T,43.788,T*31
$ECXTE,A,A,0.340,L,N*48
$GPGGA,091029,3648.4572,N,02437.8410,E,1,9,0.84,8.98,M,30.46,M*4E
$SDDPT,101.77,0.00,*7B
$IIAPB,A,A,0.41,L,N,V,V,,M,,,M,,M,A*6A
$IIMWV,291.27,R,14.40,N,A*03
$SDDBT,334.15,f,101.85,M,55.69,F*04
$GPGLL,3648.4579,N,02437.8425,E,091030,A,A*43
$GPGSA,M,1,24,12,15,17,06,02,25,14,29,,,,1.4,0.8,1.1*3B
$GPGSV,3,1,09,24,71,158,45,12,63,351,45,15,06,189,40,17,02,045,29*77
$GPGSV,3,2,09,06,32,066,41,02,43,114,44,25,37,299,41,14,24,300,39*7C
$GPGSV,3,3,09,29,26,227,43*4F
$HCHDG,,,,4.0,E*03
$ECRMB,A,0.341,L,002,003,3653.412,N,02443.775,E,6.867,43.783,5.000,V*21
$ECRMC,091037,A,3648.458,N,02437.843,E,5.000,57.900,240715,4.000,E*59
$ECAPB,A,A,0.34,L,N,V,V,46.747,T,003,43.783,T,43.783,T*31
$ECXTE,A,A,0.341,L,N*49
$IIMDA,,P,,B,23.3,C,24.7,C,,,,C,,T,,M,,N,,M*00
$IIMTW,24.73,C*21
$GPGGA,091030,3648.4580,N,02437.8426,E,1,9,0.84,9.04,M,30.46,M*4A
$SDDPT,101.85,0.00,*76
$GPRMB,A,0.41,L,,,3653.7862,N,2443.8638,E,7.20,42.12,,V,A*7C
$GPRMC,091031,A,3648.4585,N,02437.8437,E,5.29,57.51,240715,3.96,E,A*1F
$IIZDA,091031,24,07,2015,,*52
$IIAPB,A,A,0.41,L,N,V,V,,M,,,M,,M,A*6A
$IIMWV,291.53,R,14.42,N,A*02
$IIVHW,,T,,M,6.30,N,11.66,K*60
$ECRMB,A,0.341,L,002,003,3653.412,N,02443.775,E,6.866,43.781,5.290,V*29
$ECRMC,091038,A,3648.459,N,02437.844,E,5.290,57.510,240715,3.960,E*5E
$ECAPB,A,A,0.34,L,N,V,V,46.747,T,003,43.781,T,43.781,T*31
$ECXTE,A,A,0.341,L,N*49
$IIVLW,149.32,N,149.32,N,,N,,N*4D
$IIVTG,57.5,T,,M,5.3,N,9.8,K,A*2A
$IIXTE,A,A,0.41,L,N,A*11
$IIMDA,,P,,B,23.2,C,24.7,C,,,,C,,T,,M,,N,,M*01
$GPGGA,091031,3648.4588,N,02437.8441,E,1,9,0.84,8.95,M,30.46,M*4B
$SDDPT,102.07,0.00,*7F
$IIAPB,A,A,0.41,L,N,V,V,,M,,,M,,M,A*6A
$IIMWV,292.21,R,14.48,N,A*0E
$SDDBT,334.88,f,102.07,M,55.81,F*0F
$GPGLL,3648.4595,N,02437.8455,E,091032,A,A*44
$HCHDG,,,,4.0,E*03
$IIMDA,,P,,B,23.2,C,24.7,C,,,,C,,T,,M,,N,,M*01
$IIMTW,24.73,C*21
$GPGGA,091032,3648.4596,N,02437.8457,E,1,9,0.84,8.97,M,30.46,M*42
$SDDPT,102.07,0.00,*7F
$GPRMB,A,0.41,L,,,3653.7862,N,2443.8638,E,7.19,42.11,,V,A*75
$ECRMB,A,0.341,L,002,003,3653.412,N,02443.775,E,6.864,43.778,5.300,V*25
$ECRMC,091039,A,3648.459,N,02437.845,E,5.300,57.500,240715,4.000,E*5F
$ECAPB,A,A,0.34,L,N,V,V,46.747,T,003,43.778,T,43.778,T*31
$ECXTE,A,A,0.341,L,N*49
$GPRMC,091033,A,3648.4602,N,02437.8468,E,5.29,57.47,240715,3.96,E,A*1C
$IIZDA,091033,24,07,2015,,*50
$IIAPB,A,A,0.41,L,N,V,V,,M,,,M,,M,A*6A
$IIMWV,292.30,R,14.52,N,A*05
$IIVHW,,T,,M,6.59,N,12.20,K*6E
$IIVLW,149.32,N,149.32,N,,N,,N*4D
$IIVTG,57.5,T,,M,5.3,N,9.8,K,A*2A
$IIXTE,A,A,0.41,L,N,A*11
$IIMDA,,P,,B,23.2,C,24.7,C,,,,C,,T,,M,,N,,M*01
$GPGGA,091033,3648.4605,N,02437.8472,E,1,9,0.84,8.91,M,30.46,M*4B
$SDDPT,102.07,0.00,*7F
$IIAPB,A,A,0.41,L,N,V,V,,M,,,M,,M,A*6A
$IIMWV,293.50,R,14.50,N,A*00
$ECRMB,A,0.341,L,002,003,3653.412,N,02443.775,E,6.863,43.776,5.300,V*2C
$ECRMC,091040,A,3648.460,N,02437.847,E,5.300,57.500,240715,3.960,E*51
$ECAPB,A,A,0.34,L,N,V,V,46.747,T,003,43.776,T,43.776,T*31
$ECXTE,A,A,0.341,L,N*49
$SDDBT,334.88,f,102.07,M,55.81,F*0F
$GPGLL,3648.4612,N,02437.8486,E,091034,A,A*40
$GPGSA,M,1,24,12,15,17,06,02,25,14,29,,,,1.4,0.8,1.1*3B
$GPGSV,3,1,09,24,71,158,45,12,63,351,45,15,06,189,40,17,02,045,30*7F
$GPGSV,3,2,09,06,32,066,40,02,43,114,44,25,37,299,42,14,24,300,40*70
$GPGSV,3,3,09,29,26,228,43*40
$HCHDG,,,,4.0,E*03
$IIMDA,,P,,B,23.2,C,24.7,C,,,,C,,T,,M,,N,,M*01
$IIMTW,24.73,C*21
$ECRMB,A,0.342,L,002,003,3653.412,N,02443.775,E,6.861,43.773,5.300,V*28
$ECRMC,091041,A,3648.461,N,02437.849,E,5.300,57.500,240715,4.000,E*57
$ECAPB,A,A,0.34,L,N,V,V,46.747,T,003,43.773,T,43.773,T*31
$ECXTE,A,A,0.342,L,N*4A
$GPGGA,091034,3648.4612,N,02437.8487,E,1,9,0.84,9.28,M,30.46,M*43
$SDDPT,102.07,0.00,*7F
$GPRMB,A,0.41,L,,,3653.7862,N,2443.8638,E,7.19,42.11,,V,A*75
$GPRMC,091035,A,3648.4618,N,02437.8497,E,5.13,57.28,240715,3.96,E,A*11
$IIZDA,091035,24,07,2015,,*56
$IIAPB,A,A,0.41,L,N,V,V,,M,,,M,,M,A*6A
$IIMWV,292.87,R,14.52,N,A*09
$IIVHW,,T,,M,6.55,N,12.13,K*62
$IIVLW,149.33,N,149.33,N,,N,,N*4D
$IIVTG,57.3,T,,M,5.1,N,9.5,K,A*23
$IIXTE,A,A,0.41,L,N,A*11
$IIMDA,,P,,B,23.2,C,24.7,C,,,,C,,T,,M,,N,,M*01
$ECRMB,A,0.342,L,002,003,3653.412,N,02443.775,E,6.860,43.771,5.100,V*29
$ECRMC,091042,A,3648.462,N,02437.850,E,5.100,57.300,240715,3.960,E*53
$ECAPB,A,A,0.34,L,N,V,V,46.747,T,003,43.771,T,43.771,T*31
$ECXTE,A,A,0.342,L,N*4A
$GPGGA,091035,3648.4621,N,02437.8502,E,1,9,0.84,9.13,M,30.46,M*46
$SDDPT,102.07,0.00,*7F
$IIAPB,A,A,0.41,L,N,V,V,,M,,,M,,M,A*6A
$IIMWV,293.23,R,14.46,N,A*03
$SDDBT,334.88,f,102.07,M,55.81,F*0F
$GPGLL,3648.4628,N,02437.8516,E,091036,A,A*43
$HCHDG,,,,4.0,E*03
$IIMDA,,P,,B,23.2,C,24.7,C,,,,C,,T,,M,,N,,M*01
$IIMTW,24.73,C*21
$GPGGA,091036,3648.4628,N,02437.8516,E,1,9,0.84,8.99,M,30.46,M*4A
$SDDPT,102.07,0.00,*7F
$ECRMB,A,0.342,L,002,003,3653.412,N,02443.775,E,6.858,43.768,5.100,V*2A
$ECRMC,091044,A,3648.463,N,02437.852,E,5.100,57.300,240715,4.000,E*5E
$ECAPB,A,A,0.34,L,N,V,V,46.747,T,003,43.768,T,43.768,T*31
$ECXTE,A,A,0.342,L,N*4A
$GPRMB,A,0.42,L,,,3653.7862,N,2443.8638,E,7.19,42.10,,V,A*77
$GPRMC,091037,A,3648.4633,N,02437.8528,E,5.11,58.10,240715,3.96,E,A*19
$IIZDA,091037,24,07,2015,,*54
$IIAPB,A,A,0.42,L,N,V,V,,M,,,M,,M,A*69
$IIMWV,292.21,R,14.38,N,A*09
$IIVHW,,T,,M,6.49,N,12.02,K*6F
$IIVLW,149.33,N,149.33,N,,N,,N*4D
$IIVTG,58.1,T,,M,5.1,N,9.5,K,A*2E
$IIXTE,A,A,0.42,L,N,A*12
$IIMDA,,P,,B,23.2,C,24.7,C,,,,C,,T,,M,,N,,M*01
$GPGGA,091037,3648.4635,N,02437.8531,E,1,9,0.84,8.69,M,30.46,M*4D
$SDDPT,102.22,0.00,*78
$IIAPB,A,A,0.42,L,N,V,V,,M,,,M,,M,A*69
$IIMWV,292.96,R,14.31,N,A*0C
$ECRMB,A,0.343,L,002,003,3653.412,N,02443.775,E,6.857,43.765,5.100,V*29
$ECRMC,091045,A,3648.463,N,02437.853,E,5.100,58.100,240715,3.960,E*5B
$ECAPB,A,A,0.34,L,N,V,V,46.747,T,003,43.765,T,43.765,T*31
$ECXTE,A,A,0.343,L,N*4B
$SDDBT,335.86,f,102.37,M,55.98,F*0B
$GPGLL,3648.4644,N,02437.8546,E,091038,A,A*42
$GPGSA,M,1,24,12,15,17,06,02,25,14,29,,,,1.4,0.8,1.1*3B
$GPGSV,3,1,09,24,71,158,44,12,63,351,45,15,06,189,39,17,02,045,29*78
$GPGSV,3,2,09,06,32,066,40,02,43,114,44,25,37,299,41,14,24,300,39*7D
$GPGSV,3,3,09,29,26,228,43*40
$HCHDG,,,,4.0,E*03
$ECRMB,A,0.343,L,002,003,3653.412,N,02443.775,E,6.855,43.763,5.100,V*2D
$ECRMC,091046,A,3648.464,N,02437.855,E,5.100,58.100,240715,4.000,E*51
$ECAPB,A,A,0.34,L,N,V,V,46.747,T,003,43.763,T,43.763,T*31
$ECXTE,A,A,0.343,L,N*4B
$IIMDA,,P,,B,23.2,C,24.7,C,,,,C,,T,,M,,N,,M*01
$IIMTW,24.73,C*21
$GPGGA,091038,3648.4644,N,02437.8546,E,1,9,0.84,9.01,M,30.46,M*4B
$SDDPT,102.37,0.00,*7C
$GPRMB,A,0.42,L,,,3653.7862,N,2443.8638,E,7.19,42.10,,V,A*77
$GPRMC,091039,A,3648.4649,N,02437.8558,E,5.25,58.64,240715,3.96,E,A*19
$IIZDA,091039,24,07,2015,,*5A
$IIAPB,A,A,0.42,L,N,V,V,,M,,,M,,M,A*69
$IIMWV,292.51,R,14.29,N,A*0E
$IIVHW,,T,,M,6.43,N,11.92,K*6F
$IIVLW,149.33,N,149.33,N,,N,,N*4D
$IIVTG,58.6,T,,M,5.3,N,9.7,K,A*29
$IIXTE,A,A,0.42,L,N,A*12
$IIMDA,,P,,B,23.2,C,24.7,C,,,,C,,T,,M,,N,,M*01
$GPGGA,091039,3648.4651,N,02437.8562,E,1,9,0.84,8.82,M,30.46,M*42
$ECRMB,A,0.343,L,002,003,3653.412,N,02443.775,E,6.854,43.760,5.300,V*2D
$ECRMC,091047,A,3648.465,N,02437.856,E,5.300,58.600,240715,3.960,E*5F
$ECAPB,A,A,0.34,L,N,V,V,46.747,T,003,43.760,T,43.760,T*31
$ECXTE,A,A,0.343,L,N*4B
$SDDPT,102.37,0.00,*7C
$IIAPB,A,A,0.42,L,N,V,V,,M,,,M,,M,A*69
$IIMWV,292.72,R,14.35,N,A*02
$SDDBT,336.35,f,102.52,M,56.06,F*07
$GPGLL,3648.4660,N,02437.8576,E,091040,A,A*48
$HCHDG,,,,4.0,E*03
$IIMDA,,P,,B,23.2,C,24.7,C,,,,C,,T,,M,,N,,M*01
$IIMTW,24.73,C*21
$GPGGA,091040,3648.4660,N,02437.8578,E,1,9,0.84,8.91,M,30.46,M*47
$ECRMB,A,0.343,L,002,003,3653.412,N,02443.775,E,6.852,43.757,5.300,V*2F
$ECRMC,091048,A,3648.466,N,02437.858,E,5.300,58.600,240715,4.000,E*55
$ECAPB,A,A,0.34,L,N,V,V,46.747,T,003,43.757,T,43.757,T*31
$ECXTE,A,A,0.343,L,N*4B
$SDDPT,102.52,0.00,*7F
$GPRMB,A,0.42,L,,,3653.7862,N,2443.8638,E,7.18,42.09,,V,A*7E
$GPRMC,091041,A,3648.4665,N,02437.8588,E,5.00,58.71,240715,3.96,E,A*16
$IIZDA,091041,24,07,2015,,*55
$IIAPB,A,A,0.42,L,N,V,V,,M,,,M,,M,A*69
$IIMWV,293.09,R,14.40,N,A*0D
$IIVHW,,T,,M,6.38,N,11.81,K*61
$IIVLW,149.34,N,149.34,N,,N,,N*4D
$IIVTG,58.7,T,,M,5.0,N,9.3,K,A*2F
$IIXTE,A,A,0.42,L,N,A*12
$IIMDA,,P,,B,23.2,C,24.7,C,,,,C,,T,,M,,N,,M*01
$GPGGA,091041,3648.4668,N,02437.8593,E,1,9,0.84,8.89,M,30.46,M*42
$SDDPT,102.52,0.00,*7F
$IIAPB,A,A,0.42,L,N,V,V,,M,,,M,,M,A*69
$IIMWV,292.84,R,14.46,N,A*0F
$ECRMB,A,0.343,L,002,003,3653.412,N,02443.775,E,6.851,43.754,5.000,V*2C
$ECRMC,091049,A,3648.466,N,02437.859,E,5.000,58.700,240715,3.960,E*5F
$ECAPB,A,A,0.34,L,N,V,V,46.747,T,003,43.754,T,43.754,T*31
$ECXTE,A,A,0.343,L,N*4B
$SDDBT,336.35,f,102.52,M,56.06,F*07
$GPGLL,3648.4675,N,02437.8609,E,091042,A,A*45
$GPGSA,M,1,24,12,15,17,06,02,25,14,29,,,,1.4,0.8,1.1*3B
$GPGSV,3,1,09,24,71,158,44,12,63,351,45,15,06,189,39,17,02,045,28*79
$GPGSV,3,2,09,06,32,066,41,02,44,113,44,25,37,299,42,14,24,300,40*71
$GPGSV,3,3,09,29,26,228,43*40
$HCHDG,,,,4.0,E*03
$IIMDA,,P,,B,23.2,C,24.7,C,,,,C,,T,,M,,N,,M*01
$IIMTW,24.73,C*21
$GPGGA,091042,3648.4675,N,02437.8609,E,1,9,0.84,8.70,M,30.46,M*4B
$SDDPT,102.52,0.00,*7F
$ECRMB,A,0.344,L,002,003,3653.412,N,02443.775,E,6.850,43.750,5.000,V*2E
$ECRMC,091050,A,3648.468,N,02437.861,E,5.000,58.700,240715,4.000,E*5A
$ECAPB,A,A,0.34,L,N,V,V,46.747,T,003,43.750,T,43.750,T*31
$ECXTE,A,A,0.344,L,N*4C
$GPRMB,A,0.42,L,,,3653.7862,N,2443.8638,E,7.18,42.08,,V,A*7F
$GPRMC,091043,A,3648.4681,N,02437.8620,E,5.02,57.30,240715,3.96,E,A*17
$IIZDA,091043,24,07,2015,,*57
$IIAPB,A,A,0.42,L,N,V,V,,M,,,M,,M,A*69
$IIMWV,293.19,R,14.44,N,A*08
$IIVHW,,T,,M,6.43,N,11.92,K*6F
$IIVLW,149.34,N,149.34,N,,N,,N*4D
$IIVTG,57.3,T,,M,5.0,N,9.3,K,A*24
$IIXTE,A,A,0.42,L,N,A*12
$IIMDA,,P,,B,23.2,C,24.7,C,,,,C,,T,,M,,N,,M*01
$ECRMB,A,0.344,L,002,003,3653.412,N,02443.775,E,6.848,43.748,5.000,V*2E
$ECRMC,091051,A,3648.468,N,02437.862,E,5.000,57.300,240715,3.960,E*5B
$ECAPB,A,A,0.34,L,N,V,V,46.747,T,003,43.748,T,43.748,T*31
$ECXTE,A,A,0.344,L,N*4C
$GPGGA,091043,3648.4683,N,02437.8625,E,1,9,0.84,8.86,M,30.46,M*44
$SDDPT,102.52,0.00,*7F
$IIAPB,A,A,0.42,L,N,V,V,,M,,,M,,M,A*69
$IIMWV,292.82,R,14.42,N,A*0D
$SDDBT,336.35,f,102.52,M,56.06,F*07
$GPGLL,3648.4688,N,02437.8639,E,091044,A,A*42
$HCHDG,,,,4.0,E*03
$IIMDA,,P,,B,23.2,C,24.7,C,,,,C,,T,,M,,N,,M*01
$IIMTW,24.73,C*21
$GPGGA,091044,3648.4688,N,02437.8639,E,1,9,0.84,8.71,M,30.46,M*4D
$SDDPT,102.52,0.00,*7F
$GPRMB,A,0.42,L,,,3653.7862,N,2443.8638,E,7.18,42.08,,V,A*7F
$GPRMC,091045,A,3648.4695,N,02437.8652,E,5.27,61.09,240715,3.96,E,A*19
$ECRMB,A,0.345,L,002,003,3653.412,N,02443.775,E,6.846,43.741,5.270,V*2D
$ECRMC,091052,A,3648.470,N,02437.865,E,5.270,61.090,240715,3.960,E*5C
$ECAPB,A,A,0.34,L,N,V,V,46.747,T,003,43.741,T,43.741,T*31
$ECXTE,A,A,0.345,L,N*4D
$IIZDA,091045,24,07,2015,,*51
$IIAPB,A,A,0.42,L,N,V,V,,M,,,M,,M,A*69
$IIMWV,293.55,R,14.40,N,A*04
$IIVHW,,T,,M,6.53,N,12.10,K*67
$IIVLW,149.34,N,149.34,N,,N,,N*4D
$IIVTG,61.1,T,,M,5.3,N,9.8,K,A*2B
$IIXTE,A,A,0.42,L,N,A*12
$IIMDA,,P,,B,23.2,C,24.7,C,,,,C,,T,,M,,N,,M*01
$GPGGA,091045,3648.4697,N,02437.8655,E,1,9,0.84,9.05,M,30.46,M*4A
$SDDPT,102.67,0.00,*79
$IIAPB,A,A,0.42,L,N,V,V,,M,,,M,,M,A*69
$IIMWV,293.21,R,14.44,N,A*03
$ECRMB,A,0.345,L,002,003,3653.412,N,02443.775,E,6.846,43.741,5.300,V*2B
$ECRMC,091053,A,3648.470,N,02437.865,E,5.300,61.100,240715,3.960,E*53
$ECAPB,A,A,0.34,L,N,V,V,46.747,T,003,43.741,T,43.741,T*31
$ECXTE,A,A,0.345,L,N*4D
$SDDBT,336.84,f,102.67,M,56.14,F*08
$GPGLL,3648.4704,N,02437.8668,E,091046,A,A*41
$GPGSA,M,1,24,12,15,17,06,02,25,14,29,,,,1.4,0.8,1.1*3B
$GPGSV,3,1,09,24,71,158,45,12,63,351,45,15,06,189,41,17,02,045,30*7E
$GPGSV,3,2,09,06,32,066,41,02,44,113,44,25,37,299,42,14,24,300,39*7F
$GPGSV,3,3,09,29,26,228,44*47
$HCHDG,,,,4.0,E*03
$IIMDA,,P,,B,23.2,C,24.7,C,,,,C,,T,,M,,N,,M*01
$IIMTW,24.73,C*21
$GPGGA,091046,3648.4704,N,02437.8668,E,1,9,0.84,8.90,M,30.46,M*41
$ECRMB,A,0.345,L,002,003,3653.412,N,02443.775,E,6.844,43.738,5.300,V*27
$ECRMC,091054,A,3648.470,N,02437.867,E,5.300,61.100,240715,4.000,E*5E
$ECAPB,A,A,0.35,L,N,V,V,46.747,T,003,43.738,T,43.738,T*30
$ECXTE,A,A,0.345,L,N*4D
$SDDPT,102.67,0.00,*79
$GPRMB,A,0.42,L,,,3653.7862,N,2443.8638,E,7.17,42.07,,V,A*7F
$GPRMC,091047,A,3648.4709,N,02437.8683,E,5.40,64.21,240715,3.96,E,A*1D
$IIZDA,091047,24,07,2015,,*53
$IIAPB,A,A,0.42,L,N,V,V,,M,,,M,,M,A*69
$IIMWV,293.24,R,14.44,N,A*06
$IIVHW,,T,,M,6.43,N,11.92,K*6F
$IIVLW,149.35,N,149.35,N,,N,,N*4D
$IIVTG,64.2,T,,M,5.4,N,10.0,K,A*1A
$IIXTE,A,A,0.42,L,N,A*12
$ECRMB,A,0.346,L,002,003,3653.412,N,02443.775,E,6.843,43.734,5.400,V*28
$ECRMC,091055,A,3648.471,N,02437.868,E,5.400,64.200,240715,3.960,E*58
$ECAPB,A,A,0.35,L,N,V,V,46.747,T,003,43.734,T,43.734,T*30
$ECXTE,A,A,0.346,L,N*4E
$IIMDA,,P,,B,23.2,C,24.7,C,,,,C,,T,,M,,N,,M*01
$GPGGA,091047,3648.4712,N,02437.8688,E,1,9,0.84,8.97,M,30.46,M*4E
$SDDPT,102.67,0.00,*79
$IIAPB,A,A,0.42,L,N,V,V,,M,,,M,,M,A*69
$IIMWV,292.32,R,14.40,N,A*04
$SDDBT,336.84,f,102.67,M,56.14,F*08
$GPGLL,3648.4718,N,02437.8702,E,091048,A,A*4F
$HCHDG,,,,4.0,E*03
$IIMDA,,P,,B,23.2,C,24.7,C,,,,C,,T,,M,,N,,M*01
$IIMTW,24.73,C*21
$GPGGA,091048,3648.4719,N,02437.8704,E,1,9,0.84,8.82,M,30.46,M*4B
$SDDPT,102.67,0.00,*79
$GPRMB,A,0.42,L,,,3653.7862,N,2443.8638,E,7.17,42.06,,V,A*7E
$GPRMC,091049,A,3648.4725,N,02437.8716,E,5.48,59.56,240715,3.96,E,A*16
$IIZDA,091049,24,07,2015,,*5D
$ECRMB,A,0.346,L,002,003,3653.412,N,02443.775,E,6.840,43.727,5.480,V*21
$ECRMC,091056,A,3648.472,N,02437.872,E,5.480,59.560,240715,3.960,E*54
$ECAPB,A,A,0.35,L,N,V,V,46.747,T,003,43.727,T,43.727,T*30
$ECXTE,A,A,0.346,L,N*4E
$IIAPB,A,A,0.42,L,N,V,V,,M,,,M,,M,A*69
$IIMWV,291.86,R,14.42,N,A*0A
$IIVHW,,T,,M,6.34,N,11.74,K*67
$IIVLW,149.35,N,149.35,N,,N,,N*4D
$IIVTG,59.6,T,,M,5.5,N,10.2,K,A*13
$IIXTE,A,A,0.42,L,N,A*12
$IIMDA,,P,,B,23.2,C,24.7,C,,,,C,,T,,M,,N,,M*01
$GPGGA,091049,3648.4726,N,02437.8721,E,1,9,0.84,8.79,M,30.46,M*45
$SDDPT,102.67,0.00,*79
$IIAPB,A,A,0.42,L,N,V,V,,M,,,M,,M,A*69
$IIMWV,291.23,R,14.40,N,A*07
$ECRMB,A,0.346,L,002,003,3653.412,N,02443.775,E,6.840,43.727,5.500,V*28
$ECRMC,091057,A,3648.472,N,02437.872,E,5.500,59.600,240715,3.960,E*59
$ECAPB,A,A,0.35,L,N,V,V,46.747,T,003,43.727,T,43.727,T*30
$ECXTE,A,A,0.346,L,N*4E
$SDDBT,337.11,f,102.75,M,56.18,F*0A
$GPGLL,3648.4732,N,02437.8735,E,091050,A,A*4A
$GPGSA,M,1,24,12,15,17,06,02,25,14,29,,,,1.4,0.8,1.1*3B
$GPGSV,3,1,09,24,71,158,45,12,63,351,45,15,06,189,41,17,02,045,29*76
$GPGSV,3,2,09,06,32,065,41,02,44,113,44,25,37,299,42,14,24,300,40*72
$GPGSV,3,3,09,29,26,228,44*47
$HCHDG,,,,4.0,E*03
$IIMDA,,P,,B,23.2,C,24.7,C,,,,C,,T,,M,,N,,M*01
$IIMTW,24.73,C*21
$GPGGA,091050,3648.4733,N,02437.8738,E,1,9,0.84,8.55,M,30.46,M*4F
$SDDPT,102.75,0.00,*7A
$ECRMB,A,0.347,L,002,003,3653.412,N,02443.775,E,6.838,43.722,5.500,V*23
$ECRMC,091058,A,3648.473,N,02437.874,E,5.500,59.600,240715,4.000,E*59
$ECAPB,A,A,0.35,L,N,V,V,46.747,T,003,43.722,T,43.722,T*30
$ECXTE,A,A,0.347,L,N*4F
$GPRMB,A,0.42,L,,,3653.7862,N,2443.8638,E,7.17,42.06,,V,A*7E
$GPRMC,091051,A,3648.4738,N,02437.8750,E,5.79,62.38,240715,3.96,E,A*13
$IIZDA,091051,24,07,2015,,*54
$IIAPB,A,A,0.42,L,N,V,V,,M,,,M,,M,A*69
$IIMWV,291.14,R,14.42,N,A*01
$IIVHW,,T,,M,6.40,N,11.84,K*6B
$IIVLW,149.35,N,149.35,N,,N,,N*4D
$IIVTG,62.4,T,,M,5.8,N,10.7,K,A*11
$IIXTE,A,A,0.42,L,N,A*12
$IIMDA,,P,,B,23.2,C,24.7,C,,,,C,,T,,M,,N,,M*01
$GPGGA,091051,3648.4741,N,02437.8754,E,1,9,0.84,8.40,M,30.46,M*45
$SDDPT,102.97,0.00,*76
$IIAPB,A,A,0.42,L,N,V,V,,M,,,M,,M,A*69
$IIMWV,291.82,R,14.46,N,A*0A
$ECRMB,A,0.347,L,002,003,3653.412,N,02443.775,E,6.837,43.718,5.800,V*28
$ECRMC,091059,A,3648.474,N,02437.875,E,5.800,62.400,240715,3.960,E*51
$ECAPB,A,A,0.35,L,N,V,V,46.747,T,003,43.718,T,43.718,T*30
$ECXTE,A,A,0.347,L,N*4F
$SDDBT,337.83,f,102.97,M,56.30,F*07
$GPGLL,3648.4748,N,02437.8768,E,091052,A,A*4D
$HCHDG,,,,4.0,E*03
$IIMDA,,P,,B,23.2,C,24.7,C,,,,C,,T,,M,,N,,M*01
$IIMTW,24.73,C*21
$GPGGA,091052,3648.4748,N,02437.8768,E,1,9,0.84,8.75,M,30.46,M*46
$SDDPT,102.97,0.00,*76
$GPRMB,A,0.42,L,,,3653.7862,N,2443.8638,E,7.17,42.04,,V,A*7C
$GPRMC,091053,A,3648.4754,N,02437.8779,E,4.90,56.83,240715,3.96,E,A*11
$ECRMB,A,0.348,L,002,003,3653.412,N,02443.775,E,6.834,43.713,4.900,V*2F
$ECRMC,091100,A,3648.475,N,02437.878,E,4.900,56.830,240715,3.960,E*58
$ECAPB,A,A,0.35,L,N,V,V,46.747,T,003,43.713,T,43.713,T*30
$ECXTE,A,A,0.348,L,N*40
$IIZDA,091053,24,07,2015,,*56
$IIAPB,A,A,0.42,L,N,V,V,,M,,,M,,M,A*69
$IIMWV,291.65,R,14.54,N,A*00
$IIVHW,,T,,M,6.45,N,11.95,K*6E
$IIVLW,149.36,N,149.36,N,,N,,N*4D
$IIVTG,56.8,T,,M,4.9,N,9.1,K,A*24
$IIXTE,A,A,0.42,L,N,A*12
$IIMDA,,P,,B,23.2,C,24.7,C,,,,C,,T,,M,,N,,M*01
$GPGGA,091053,3648.4757,N,02437.8784,E,1,9,0.84,8.51,M,30.46,M*4D
$SDDPT,102.97,0.00,*76
$IIAPB,A,A,0.42,L,N,V,V,,M,,,M,,M,A*69
$IIMWV,292.49,R,14.60,N,A*0A
$ECRMB,A,0.348,L,002,003,3653.412,N,02443.775,E,6.834,43.713,4.900,V*2F
$ECRMC,091101,A,3648.475,N,02437.878,E,4.900,56.800,240715,3.960,E*5A
$ECAPB,A,A,0.35,L,N,V,V,46.747,T,003,43.713,T,43.713,T*30
$ECXTE,A,A,0.348,L,N*40
$SDDBT,337.83,f,102.97,M,56.30,F*07
$GPGLL,3648.4764,N,02437.8798,E,091054,A,A*4A
$GPGSA,M,1,24,12,15,17,06,02,25,14,29,,,,1.4,0.8,1.1*3B
$GPGSV,3,1,09,24,71,158,45,12,63,351,45,15,06,189,40,17,02,045,29*77
$GPGSV,3,2,09,06,32,065,41,02,44,113,44,25,37,299,42,14,24,300,40*72
$GPGSV,3,3,09,29,26,228,44*47
$HCHDG,,,,4.0,E*03
$IIMDA,,P,,B,23.2,C,24.7,C,,,,C,,T,,M,,N,,M*01
$IIMTW,24.73,C*21
$GPGGA,091054,3648.4764,N,02437.8800,E,1,9,0.84,8.66,M,30.46,M*4D
$ECRMB,A,0.348,L,002,003,3653.412,N,02443.775,E,6.833,43.710,4.900,V*2B
$ECRMC,091102,A,3648.476,N,02437.880,E,4.900,56.800,240715,4.000,E*55
$ECAPB,A,A,0.35,L,N,V,V,46.747,T,003,43.710,T,43.710,T*30
$ECXTE,A,A,0.348,L,N*40
$SDDPT,102.97,0.00,*76
